id,city,latitude,longitude,country,iso2,iso3,capital
1392685764,Tokyo,35.6897,139.6922,Japan,JP,JPN,Tōkyō
1360771077,Jakarta,-6.2146,106.8451,Indonesia,ID,IDN,Jakarta
1356872604,Delhi,28.66,77.23,India,IN,IND,Delhi
1356226629,Mumbai,18.9667,72.8333,India,IN,IND,Mahārāshtra
1608618140,Manila,14.5958,120.9772,Philippines,PH,PHL,Manila
1156073548,Shanghai,31.1667,121.4667,China,CN,CHN,Shanghai
1076532519,São Paulo,-23.5504,-46.6339,Brazil,BR,BRA,São Paulo
1410836482,Seoul,37.5833,127,"Korea, South",KR,KOR,Seoul
1484247881,Mexico City,19.4333,-99.1333,Mexico,MX,MEX,Ciudad de México
1156237133,Guangzhou,23.1288,113.259,China,CN,CHN,Guangdong
1156228865,Beijing,39.905,116.3914,China,CN,CHN,Beijing
1818253931,Cairo,30.0561,31.2394,Egypt,EG,EGY,Al Qāhirah
1840034016,New York,40.6943,-73.9249,United States,US,USA,New York
1356060520,Kolkāta,22.5411,88.3378,India,IN,IND,West Bengal
1643318494,Moscow,55.7558,37.6178,Russia,RU,RUS,Moskva
1764068610,Bangkok,13.75,100.5167,Thailand,TH,THA,Krung Thep Maha Nakhon
1032717330,Buenos Aires,-34.5997,-58.3819,Argentina,AR,ARG,"Buenos Aires, Ciudad Autónoma de"
1156158707,Shenzhen,22.535,114.054,China,CN,CHN,Guangdong
1050529279,Dhaka,23.7161,90.3961,Bangladesh,BD,BGD,Dhaka
1566593751,Lagos,6.45,3.4,Nigeria,NG,NGA,Lagos
1792756324,Istanbul,41.01,28.9603,Turkey,TR,TUR,İstanbul
1392419823,Ōsaka,34.6936,135.5019,Japan,JP,JPN,Ōsaka
1586129469,Karachi,24.86,67.01,Pakistan,PK,PAK,Sindh
1356410365,Bangalore,12.9699,77.598,India,IN,IND,Karnātaka
1364305026,Tehran,35.7,51.4167,Iran,IR,IRN,Tehrān
1180000363,Kinshasa,-4.3317,15.3139,Congo (Kinshasa),CD,COD,Kinshasa
1704774326,Ho Chi Minh City,10.8167,106.6333,Vietnam,VN,VNM,Hồ Chí Minh
1840020491,Los Angeles,34.1139,-118.4068,United States,US,USA,California
1076887657,Rio de Janeiro,-22.9083,-43.1964,Brazil,BR,BRA,Rio de Janeiro
1156192287,Nanyang,32.9987,112.5292,China,CN,CHN,Henan
1356374944,Chennai,13.0825,80.275,India,IN,IND,Tamil Nādu
1156421555,Chengdu,30.6636,104.0667,China,CN,CHN,Sichuan
1586801463,Lahore,31.5497,74.3436,Pakistan,PK,PAK,Punjab
1250015082,Paris,48.8566,2.3522,France,FR,FRA,Île-de-France
1826645935,London,51.5072,-0.1275,United Kingdom,GB,GBR,"London, City of"
1156086320,Linyi,35.0606,118.3425,China,CN,CHN,Shandong
1156174046,Tianjin,39.1467,117.2056,China,CN,CHN,Tianjin
1156217541,Shijiazhuang,38.0422,114.5086,China,CN,CHN,Hebei
1156256829,Baoding,38.8671,115.4845,China,CN,CHN,Hebei
1156272098,Zhoukou,33.625,114.6418,China,CN,CHN,Henan
1604728603,Lima,-12.05,-77.0333,Peru,PE,PER,Lima
1356871768,Hyderābād,17.3667,78.4667,India,IN,IND,Telangana
1170483426,Bogotá,4.6126,-74.0705,Colombia,CO,COL,Bogotá
1156912965,Weifang,36.7167,119.1,China,CN,CHN,Shandong
1392407472,Nagoya,35.1167,136.9333,Japan,JP,JPN,Aichi
1156117184,Wuhan,30.5872,114.2881,China,CN,CHN,Hubei
1156225008,Heze,35.2333,115.4333,China,CN,CHN,Shandong
1156832475,Ganzhou,25.8292,114.9336,China,CN,CHN,Jiangxi
1156241678,Tongshan,34.261,117.1859,China,CN,CHN,Jiangsu
1840000494,Chicago,41.8373,-87.6862,United States,US,USA,Illinois
1156957080,Handan,36.6116,114.4894,China,CN,CHN,Hebei
1024949724,Luanda,-8.8383,13.2344,Angola,AO,AGO,Luanda
1156248008,Fuyang,32.8986,115.8045,China,CN,CHN,Anhui
1458988644,Kuala Lumpur,3.1478,101.6953,Malaysia,MY,MYS,Kuala Lumpur
1156504601,Jining,35.4,116.5667,China,CN,CHN,Shandong
1156478242,Dongguan,23.0475,113.7493,China,CN,CHN,Guangdong
1704413791,Hanoi,21.0245,105.8412,Vietnam,VN,VNM,Hà Nội
1356081074,Pune,18.5196,73.8553,India,IN,IND,Mahārāshtra
1156936556,Chongqing,29.55,106.5069,China,CN,CHN,Chongqing
1156078103,Changchun,43.9,125.2,China,CN,CHN,Jilin
1156184822,Zhumadian,32.9773,114.0253,China,CN,CHN,Henan
1156170787,Ningbo,29.875,121.5492,China,CN,CHN,Zhejiang
1566593483,Onitsha,6.1667,6.7833,Nigeria,NG,NGA,Anambra
1156644065,Nanjing,32.05,118.7667,China,CN,CHN,Jiangsu
1156332710,Hefei,31.8639,117.2808,China,CN,CHN,Anhui
1356304381,Ahmadābād,23.03,72.58,India,IN,IND,Gujarāt
1344982653,Hong Kong,22.305,114.185,Hong Kong,HK,HKG,
1729268475,Khartoum,15.6031,32.5265,Sudan,SD,SDN,Khartoum
1156045365,Nantong,31.9829,120.8873,China,CN,CHN,Jiangsu
1156995410,Yancheng,33.3936,120.1339,China,CN,CHN,Jiangsu
1156738403,Foshan,23.0292,113.1056,China,CN,CHN,Guangdong
1156605439,Nanning,22.8192,108.315,China,CN,CHN,Guangxi
1156696884,Hengyang,26.8968,112.5857,China,CN,CHN,Hunan
1156244079,Xi’an,34.2667,108.9,China,CN,CHN,Shaanxi
1156309382,Shenyang,41.8039,123.4258,China,CN,CHN,Liaoning
1156904299,Tangshan,39.6292,118.1742,China,CN,CHN,Hebei
1156310366,Shaoyang,27.2418,111.4725,China,CN,CHN,Hunan
1156961497,Changsha,28.1987,112.9709,China,CN,CHN,Hunan
1152554349,Santiago,-33.45,-70.6667,Chile,CL,CHL,Región Metropolitana
1156183137,Zhengzhou,34.7492,113.6605,China,CN,CHN,Henan
1156502170,Zhanjiang,21.1967,110.4031,China,CN,CHN,Guangdong
1682999334,Riyadh,24.65,46.71,Saudi Arabia,SA,SAU,Ar Riyāḑ
1156698069,Cangzhou,38.3037,116.8452,China,CN,CHN,Hebei
1834843853,Dar es Salaam,-6.8,39.2833,Tanzania,TZ,TZA,Dar es Salaam
1156568722,Maoming,21.6618,110.9178,China,CN,CHN,Guangdong
1156200037,Huanggang,30.45,114.875,China,CN,CHN,Hubei
1156273453,Xinyang,32.1264,114.0672,China,CN,CHN,Henan
1156405492,Shangrao,28.4419,117.9633,China,CN,CHN,Jiangxi
1156069315,Luoyang,34.6587,112.4245,China,CN,CHN,Henan
1156018927,Bijie,27.3019,105.2863,China,CN,CHN,Guizhou
1156932948,Yantai,37.3997,121.2664,China,CN,CHN,Shandong
1156829655,Quanzhou,24.9139,118.5858,China,CN,CHN,Fujian
1156275243,Hangzhou,30.25,120.1675,China,CN,CHN,Zhejiang
1840015149,Miami,25.7839,-80.2102,United States,US,USA,Florida
1156477539,Kunming,25.0433,102.7061,China,CN,CHN,Yunnan
1156762337,Nanchong,30.7991,106.0784,China,CN,CHN,Sichuan
1156539782,Zunyi,27.705,106.9336,China,CN,CHN,Guizhou
1156499624,Lu’an,31.7542,116.5078,China,CN,CHN,Anhui
1156229590,Yichun,27.8041,114.383,China,CN,CHN,Jiangxi
1156322307,Taizhou,28.6583,121.4221,China,CN,CHN,Zhejiang
1156006600,Liaocheng,36.45,115.9833,China,CN,CHN,Shandong
1156747998,Qujing,25.5102,103.8029,China,CN,CHN,Yunnan
1156107325,Xiangyang,32.0654,112.1531,China,CN,CHN,Hubei
1356758738,Sūrat,21.17,72.83,India,IN,IND,Gujarāt
1368596238,Baghdad,33.35,44.4167,Iraq,IQ,IRQ,Baghdād
1156112588,Qingdao,36.1167,120.4,China,CN,CHN,Shandong
1702341327,Singapore,1.3,103.8,Singapore,SG,SGP,Central Singapore
1840019440,Dallas,32.7936,-96.7662,United States,US,USA,Texas
1156449091,Changde,29.0397,111.6839,China,CN,CHN,Hunan
1156834076,Dazhou,31.2152,107.4947,China,CN,CHN,Sichuan
1156871297,Suzhou,33.6333,116.9683,China,CN,CHN,Anhui
1840000673,Philadelphia,40.0077,-75.1339,United States,US,USA,Pennsylvania
1156260378,Jieyang,23.5533,116.3649,China,CN,CHN,Guangdong
1404000661,Nairobi,-1.2864,36.8172,Kenya,KE,KEN,Nairobi City
1156127660,Nangandao,35.2992,113.8851,China,CN,CHN,Henan
1792572891,Ankara,39.93,32.85,Turkey,TR,TUR,Ankara
1156095188,Tai’an,36.2001,117.0809,China,CN,CHN,Shandong
1156901312,Yulin,22.6293,110.1507,China,CN,CHN,Guangxi
1156524080,Dezhou,37.4513,116.3105,China,CN,CHN,Shandong
1840020925,Houston,29.7863,-95.3889,United States,US,USA,Texas
1840013660,Atlanta,33.7627,-84.4224,United States,US,USA,Georgia
1104616656,Rangoon,16.8,96.15,Burma,MM,MMR,Yangon
1124279679,Toronto,43.7417,-79.3733,Canada,CA,CAN,Ontario
1156235493,Suihua,46.6384,126.9808,China,CN,CHN,Heilongjiang
1840006060,Washington,38.9047,-77.0163,United States,US,USA,District of Columbia
1156775905,Qiqihar,47.3398,123.9512,China,CN,CHN,Heilongjiang
1156547188,Jinhua,29.1046,119.6494,China,CN,CHN,Zhejiang
1643616350,Saint Petersburg,59.95,30.3167,Russia,RU,RUS,Sankt-Peterburg
1156457499,Shantou,23.3735,116.6941,China,CN,CHN,Guangdong
1036074917,Sydney,-33.865,151.2094,Australia,AU,AUS,New South Wales
1156903687,Weinan,34.4996,109.4684,China,CN,CHN,Shaanxi
1156212349,Suqian,33.9331,118.2831,China,CN,CHN,Jiangsu
1484950208,Guadalajara,20.6767,-103.3475,Mexico,MX,MEX,Jalisco
1156029196,Suzhou,31.304,120.6164,China,CN,CHN,Jiangsu
1156188037,Fuzhou,26.0769,119.2917,China,CN,CHN,Fujian
1156924687,Zhaotong,27.3328,103.7144,China,CN,CHN,Yunnan
1156644508,Pudong,31.2231,121.5397,China,CN,CHN,Shanghai
1156694479,Yongzhou,26.4515,111.5953,China,CN,CHN,Hunan
1076967355,Belo Horizonte,-19.8917,-43.9478,Brazil,BR,BRA,Minas Gerais
1156241637,Zhangzhou,24.5093,117.6612,China,CN,CHN,Fujian
1156356860,Bozhou,33.8626,115.7742,China,CN,CHN,Anhui
1036533631,Melbourne,-37.8136,144.9631,Australia,AU,AUS,Victoria
1156198892,Nanchang,28.6842,115.8872,China,CN,CHN,Jiangxi
1156120117,Xianyang,34.35,108.7167,China,CN,CHN,Shaanxi
1156119229,Taizhou,32.4831,119.9,China,CN,CHN,Jiangsu
1360484663,Surabaya,-7.2458,112.7378,Indonesia,ID,IDN,Jawa Timur
1384207980,Abidjan,5.3364,-4.0267,Côte D’Ivoire,CI,CIV,Abidjan
1156278215,Ji’an,27.1172,114.9793,China,CN,CHN,Jiangxi
1156417758,Mianyang,31.4669,104.7385,China,CN,CHN,Sichuan
1156893449,Shaoxing,30,120.5833,China,CN,CHN,Zhejiang
1818695837,Alexandria,31.2,29.9167,Egypt,EG,EGY,Al Iskandarīyah
1156705644,Yuncheng,35.0304,110.998,China,CN,CHN,Shanxi
1156735124,Pingdingshan,33.735,113.2999,China,CN,CHN,Henan
1156634228,Huai’an,33.5,119.1331,China,CN,CHN,Jiangsu
1156035381,Xinpu,34.5906,119.1801,China,CN,CHN,Jiangsu
1156235364,Guilin,25.2667,110.2833,China,CN,CHN,Guangxi
1156353465,Huaihua,27.5494,109.9592,China,CN,CHN,Hunan
1156206041,Jiujiang,29.7048,116.0021,China,CN,CHN,Jiangxi
1156238875,Anqing,30.5,117.0333,China,CN,CHN,Anhui
1840000455,Boston,42.3188,-71.0846,United States,US,USA,Massachusetts
1156198356,Huanglongsi,34.7936,114.3403,China,CN,CHN,Henan
1156002290,Xiaoganzhan,30.9273,113.911,China,CN,CHN,Hubei
1156185511,Changzhou,31.8122,119.9692,China,CN,CHN,Jiangsu
1724594040,Barcelona,41.3825,2.1769,Spain,ES,ESP,Catalonia
1156291915,Chenzhou,25.7989,113.0267,China,CN,CHN,Hunan
1156019650,Wuxi,31.5667,120.2833,China,CN,CHN,Jiangsu
1156381094,Zibo,36.7831,118.0497,China,CN,CHN,Shandong
1156491661,Jiaxing,30.7522,120.75,China,CN,CHN,Zhejiang
1156175472,Dalian,38.9131,121.61,China,CN,CHN,Liaoning
1156241528,Harbin,45.75,126.6333,China,CN,CHN,Heilongjiang
1156818601,Yangzhou,32.3912,119.4363,China,CN,CHN,Jiangsu
1156107603,Yibin,28.7596,104.64,China,CN,CHN,Sichuan
1156105613,Jiangmen,22.5833,113.0833,China,CN,CHN,Guangdong
1710550792,Johannesburg,-26.2044,28.0416,South Africa,ZA,ZAF,Gauteng
1156361028,Meizhou,24.2998,116.1191,China,CN,CHN,Guangdong
1156277458,Chifeng,42.2663,118.9223,China,CN,CHN,Inner Mongolia
1504175315,Casablanca,33.5992,-7.62,Morocco,MA,MAR,Casablanca-Settat
1156932620,Guiyang,26.5794,106.7078,China,CN,CHN,Guizhou
1156109017,Langfang,39.5196,116.7006,China,CN,CHN,Hebei
1156800221,Zhangjiakou,40.8108,114.8811,China,CN,CHN,Hebei
1792725579,İzmir,38.4127,27.1384,Turkey,TR,TUR,İzmir
1156416074,Linfen,36.0812,111.5087,China,CN,CHN,Shanxi
1156188829,Wenzhou,27.9991,120.6561,China,CN,CHN,Zhejiang
1484559591,Monterrey,25.6667,-100.3,Mexico,MX,MEX,Nuevo León
1156582079,Luzhou,28.8918,105.4409,China,CN,CHN,Sichuan
1156235735,Jiangguanchi,34.0244,113.8201,China,CN,CHN,Henan
1156516335,Neijiang,29.5872,105.0635,China,CN,CHN,Sichuan
1840020568,Phoenix,33.5722,-112.0891,United States,US,USA,Arizona
1156217114,Yanjiang,30.1256,104.6397,China,CN,CHN,Sichuan
1156218615,Yiyang,28.5833,112.3333,China,CN,CHN,Hunan
1156170144,Zhaoqing,23.047,112.465,China,CN,CHN,Guangdong
1156803028,Hengshui,37.7348,115.686,China,CN,CHN,Hebei
1156895251,Guigang,23.0961,109.6092,China,CN,CHN,Guangxi
1156764447,Xiaoxita,30.7083,111.2803,China,CN,CHN,Hubei
1156212809,Xiamen,24.4797,118.0819,China,CN,CHN,Fujian
1156036420,Chuzhou,32.3062,118.3115,China,CN,CHN,Anhui
1156915325,Fuzhou,27.9814,116.3577,China,CN,CHN,Jiangxi
1400522593,Amman,31.95,35.9333,Jordan,JO,JOR,Al ‘Āşimah
1682926944,Jeddah,21.5428,39.1728,Saudi Arabia,SA,SAU,Makkah al Mukarramah
1586141444,Sialkot City,32.5,74.5333,Pakistan,PK,PAK,Punjab
1156203268,Huizhou,23.1115,114.4152,China,CN,CHN,Guangdong
1156135890,Qingyuan,23.6842,113.0507,China,CN,CHN,Guangdong
1156041962,Zhuzhou,27.8407,113.1469,China,CN,CHN,Hunan
1156315512,Wuhu,31.334,118.3622,China,CN,CHN,Anhui
1156868701,Hechi,23.0965,109.6091,China,CN,CHN,Guangxi
1840021117,Seattle,47.6211,-122.3244,United States,US,USA,Washington
1156010654,Loudi,27.7378,111.9974,China,CN,CHN,Hunan
1156564962,Binzhou,37.3806,118.0125,China,CN,CHN,Shandong
1156360785,Liuzhou,24.3181,109.4069,China,CN,CHN,Guangxi
1392118339,Yokohama,35.4333,139.6333,Japan,JP,JPN,Kanagawa
1156101096,Baojishi,34.3609,107.1751,China,CN,CHN,Shaanxi
1156377302,Guang’an,30.4673,106.6336,China,CN,CHN,Sichuan
1156382678,Hanzhong,33.0794,107.026,China,CN,CHN,Shaanxi
1004993580,Kabul,34.5328,69.1658,Afghanistan,AF,AFG,Kābul
1156796454,Zaozhuang,34.8667,117.55,China,CN,CHN,Shandong
1276451290,Berlin,52.5167,13.3833,Germany,DE,DEU,Berlin
1156901825,Anshan,41.1066,122.9895,China,CN,CHN,Liaoning
1156127147,Deyang,31.1289,104.395,China,CN,CHN,Sichuan
1156280566,Lanzhou,36.0617,103.8318,China,CN,CHN,Gansu
1156197800,Chengde,40.9739,117.9322,China,CN,CHN,Hebei
1840021543,San Francisco,37.7562,-122.443,United States,US,USA,California
1156431924,Puyang,35.7639,115.03,China,CN,CHN,Henan
1156655650,Suining,30.5098,105.5737,China,CN,CHN,Sichuan
1156157854,Jiaozuo,35.229,113.2304,China,CN,CHN,Henan
1156440668,Bengbu,32.9354,117.3531,China,CN,CHN,Anhui
1124586170,Montréal,45.5089,-73.5617,Canada,CA,CAN,Quebec
1840003971,Detroit,42.3834,-83.1024,United States,US,USA,Michigan
1156981113,Baicheng,23.901,106.6194,China,CN,CHN,Guangxi
1410601465,Busan,35.1,129.0403,"Korea, South",KR,KOR,Busan
1012973369,Algiers,36.7764,3.0586,Algeria,DZ,DZA,Alger
1156104017,Qincheng,34.5809,105.7311,China,CN,CHN,Gansu
1156632014,Taiyuan,37.8733,112.5425,China,CN,CHN,Shanxi
1356891790,Lucknow,26.847,80.947,India,IN,IND,Uttar Pradesh
1156706927,Chaoyang,41.5757,120.4486,China,CN,CHN,Liaoning
1156167204,Hechi,24.6928,108.085,China,CN,CHN,Guangxi
1156203130,Leshan,29.5854,103.7575,China,CN,CHN,Sichuan
1156280672,Yulinshi,38.2655,109.7388,China,CN,CHN,Shaanxi
1156063295,Siping,43.1715,124.3644,China,CN,CHN,Jilin
1724616994,Madrid,40.4189,-3.6919,Spain,ES,ESP,Madrid
1156972469,Jinan,36.6667,116.9833,China,CN,CHN,Shandong
1156383921,Shiyan,32.6351,110.7755,China,CN,CHN,Hubei
1156057944,Changzhi,36.1953,113.097,China,CN,CHN,Shanxi
1840021990,San Diego,32.8312,-117.1225,United States,US,USA,California
1586323916,Faisalabad,31.418,73.079,Pakistan,PK,PAK,Punjab
1068129363,Santa Cruz,-17.7892,-63.1975,Bolivia,BO,BOL,Santa Cruz
1156271365,Bazhou,31.8576,106.7559,China,CN,CHN,Sichuan
1156579621,Zhongshan,22.5333,113.35,China,CN,CHN,Guangdong
1156934125,Zhenjiang,32.2109,119.4551,China,CN,CHN,Jiangsu
1156051276,Ürümqi,43.825,87.6,China,CN,CHN,Xinjiang
1156358686,Tongliao,43.6172,122.264,China,CN,CHN,Inner Mongolia
1156665165,Heyuan,23.7503,114.6923,China,CN,CHN,Guangdong
1156803442,Tongren,27.7233,109.1885,China,CN,CHN,Guizhou
1156106602,Qinzhou,21.95,108.6167,China,CN,CHN,Guangxi
1356293537,Jaipur,26.9167,75.8667,India,IN,IND,Rājasthān
1156617534,Xinzhou,38.4178,112.7233,China,CN,CHN,Shanxi
1231824991,Addis Ababa,9.0272,38.7369,Ethiopia,ET,ETH,Ādīs Ābeba
1818925479,Giza,29.987,31.2118,Egypt,EG,EGY,Al Jīzah
1156185501,Meishan,30.0575,103.8381,China,CN,CHN,Sichuan
1076144436,Brasília,-15.7744,-48.0773,Brazil,BR,BRA,Distrito Federal
1364123206,Mashhad,36.3069,59.6042,Iran,IR,IRN,Khorāsān-e Raẕavī
1156157151,Jinzhou,41.1144,121.1292,China,CN,CHN,Liaoning
1156089994,Tieling,42.2841,123.8365,China,CN,CHN,Liaoning
1156617066,Shaoguan,24.8011,113.5927,China,CN,CHN,Guangdong
1156939010,Shanwei,22.7664,115.3331,China,CN,CHN,Guangdong
1840007830,Minneapolis,44.9635,-93.2678,United States,US,USA,Minnesota
1804382913,Kyiv,50.45,30.5236,Ukraine,UA,UKR,"Kyyiv, Misto"
1887750814,Sanaa,15.35,44.2,Yemen,YE,YEM,Amānat al ‘Āşimah
1608974097,Quezon City,14.6333,121.0333,Philippines,PH,PHL,Quezon
1156518274,Dingxi,35.5806,104.6263,China,CN,CHN,Gansu
1076923789,Salvador,-12.9708,-38.5108,Brazil,BR,BRA,Bahia
1410160313,Incheon,37.4639,126.6486,"Korea, South",KR,KOR,Incheon
1792903330,Bursa,40.1833,29.0667,Turkey,TR,TUR,Bursa
1156909802,Ningde,26.6667,119.5167,China,CN,CHN,Fujian
1840015982,Tampa,27.9942,-82.4451,United States,US,USA,Florida
1156403962,Daqing,46.5979,125.008,China,CN,CHN,Heilongjiang
1826423213,Birmingham,52.48,-1.9025,United Kingdom,GB,GBR,Birmingham
1156811601,Putian,25.4394,119.0103,China,CN,CHN,Fujian
1156335543,Huzhou,30.8695,120.0958,China,CN,CHN,Zhejiang
1156620133,Wuzhou,23.4833,111.3167,China,CN,CHN,Guangxi
1840018789,Denver,39.7621,-104.8759,United States,US,USA,Colorado
1380382862,Rome,41.8931,12.4828,Italy,IT,ITA,Lazio
1068000064,La Paz,-16.4942,-68.1475,Bolivia,BO,BOL,La Paz
1408738594,Pyongyang,39.03,125.73,"Korea, North",KP,PRK,P’yŏngyang
1566422868,Kano,12,8.5167,Nigeria,NG,NGA,Kano
1158689622,Taichung,24.15,120.6667,Taiwan,TW,TWN,Taichung
1729912179,Omdurman,15.6835,32.4629,Sudan,SD,SDN,Khartoum
1156023354,Zigong,29.3498,104.7645,China,CN,CHN,Sichuan
1156091093,Qinhuangdao,39.9398,119.5881,China,CN,CHN,Hebei
1156249698,Mudanjiang,44.5861,129.5997,China,CN,CHN,Heilongjiang
1156580218,Huludao,40.7094,120.8378,China,CN,CHN,Liaoning
1158331334,Kaohsiung,22.6167,120.3,Taiwan,TW,TWN,Kaohsiung
1156195684,Xiangtan,27.8431,112.9228,China,CN,CHN,Hunan
1218802178,Guayaquil,-2.1833,-79.8833,Ecuador,EC,ECU,Guayas
1156032841,Rizhao,35.4164,119.4331,China,CN,CHN,Shandong
1826246335,Manchester,53.4794,-2.2453,United Kingdom,GB,GBR,Manchester
1356575238,Cawnpore,26.4725,80.3311,India,IN,IND,Uttar Pradesh
1156032751,Baotou,40.6562,109.8345,China,CN,CHN,Inner Mongolia
1158881289,Taipei,25.0478,121.5319,Taiwan,TW,TWN,Taipei
1156927445,Nanping,26.6448,118.1728,China,CN,CHN,Fujian
1156012979,Longyan,25.0881,117.0244,China,CN,CHN,Fujian
1566366407,Ibadan,7.3964,3.9167,Nigeria,NG,NGA,Oyo
1156210167,Hohhot,40.8151,111.6629,China,CN,CHN,Inner Mongolia
1156549118,Chaozhou,23.67,116.63,China,CN,CHN,Guangdong
1450978461,Antananarivo,-18.9386,47.5214,Madagascar,MG,MDG,Antananarivo
1156633259,Longba,33.535,105.349,China,CN,CHN,Gansu
1156473300,Weihai,37.5,122.1,China,CN,CHN,Shandong
1050830722,Chattogram,22.335,91.8325,Bangladesh,BD,BGD,Chittagong
1214636202,Santo Domingo,18.4764,-69.8933,Dominican Republic,DO,DOM,Ozama
1156424311,Xuanzhou,30.9475,118.7518,China,CN,CHN,Anhui
1156294429,Sanming,26.2658,117.6302,China,CN,CHN,Fujian
1840034030,Brooklyn,40.6501,-73.9496,United States,US,USA,New York
1170680389,Medellín,6.2447,-75.5748,Colombia,CO,COL,Antioquia
1036192929,Brisbane,-27.4678,153.0281,Australia,AU,AUS,Queensland
1156546994,Baoshan,25.1211,99.169,China,CN,CHN,Yunnan
1784736618,Dubai,25.2697,55.3094,United Arab Emirates,AE,ARE,Dubayy
1156330876,Luohe,33.583,114.0109,China,CN,CHN,Henan
1156032582,Qinbaling,35.7278,107.64,China,CN,CHN,Gansu
1356427908,Mirzāpur,25.15,82.58,India,IN,IND,Uttar Pradesh
1156084562,Guangyuan,32.4353,105.8398,China,CN,CHN,Sichuan
1170417589,Cali,3.44,-76.5197,Colombia,CO,COL,Valle del Cauca
1410095252,Daegu,35.8667,128.6,"Korea, South",KR,KOR,Daegu
1076567885,Fortaleza,-3.7275,-38.5275,Brazil,BR,BRA,Ceará
1320197916,Guatemala City,14.6099,-90.5252,Guatemala,GT,GTM,Guatemala
1120298240,Yaoundé,3.8578,11.5181,Cameroon,CM,CMR,Centre
1120494607,Douala,4.05,9.7,Cameroon,CM,CMR,Littoral
1156646448,Jilin,43.85,126.55,China,CN,CHN,Jilin
1156046704,Lianshan,40.7503,120.83,China,CN,CHN,Liaoning
1156044130,Lincang,23.8864,100.0871,China,CN,CHN,Yunnan
1792988434,Antalya,36.9081,30.6956,Turkey,TR,TUR,Antalya
1860331871,Tashkent,41.3,69.2667,Uzbekistan,UZ,UZB,Toshkent
1156234290,Huangshi,30.2018,115.0326,China,CN,CHN,Hubei
1360313023,Bandung,-6.95,107.5667,Indonesia,ID,IDN,Jawa Barat
1356365743,Nāgpur,21.1539,79.0831,India,IN,IND,Mahārāshtra
1156178316,Dandong,40.1167,124.3833,China,CN,CHN,Liaoning
1156877299,Huainan,32.4831,117.0164,China,CN,CHN,Anhui
1156091241,Shangzhou,33.868,109.9244,China,CN,CHN,Shaanxi
1360006015,Bekasi,-6.2333,107,Indonesia,ID,IDN,Jawa Barat
1356691871,Ghāziābād,28.6667,77.4167,India,IN,IND,Uttar Pradesh
1484708778,Tijuana,32.525,-117.0333,Mexico,MX,MEX,Baja California
1156350864,Jiamusi,46.8081,130.3653,China,CN,CHN,Heilongjiang
1156123172,Yangjiang,21.8556,111.9627,China,CN,CHN,Guangdong
1288299415,Accra,5.6037,-0.187,Ghana,GH,GHA,Greater Accra
1156682309,Yuxi,24.3495,102.5432,China,CN,CHN,Yunnan
1156857743,Fushun,41.8708,123.8917,China,CN,CHN,Liaoning
1156415948,Anshun,26.2456,105.934,China,CN,CHN,Guizhou
1124825478,Vancouver,49.25,-123.1,Canada,CA,CAN,British Columbia
1360002844,Tangerang,-6.1783,106.6319,Indonesia,ID,IDN,Jawa Barat
1792014004,Konya,37.8714,32.4847,Turkey,TR,TUR,Konya
1840034002,Queens,40.7498,-73.7976,United States,US,USA,New York
1156257074,Yingkou,40.6653,122.2297,China,CN,CHN,Liaoning
1792783772,Adana,37,35.325,Turkey,TR,TUR,Adana
1360543171,Medan,3.6667,98.6667,Indonesia,ID,IDN,Sumatera Utara
1156529682,Sanmenxia,34.7736,111.195,China,CN,CHN,Henan
1356402812,Indore,22.7206,75.8472,India,IN,IND,Madhya Pradesh
1156847452,Ma’anshan,31.7135,118.3605,China,CN,CHN,Anhui
1156216904,Pingliang,35.5412,106.6819,China,CN,CHN,Gansu
1156180376,Quzhou,28.9545,118.8763,China,CN,CHN,Zhejiang
1031946365,Baku,40.3667,49.8352,Azerbaijan,AZ,AZE,Bakı
1156522457,Gaoping,30.7804,106.13,China,CN,CHN,Sichuan
1156142626,Huaibei,33.9562,116.789,China,CN,CHN,Anhui
1156081448,Xining,36.6239,101.7787,China,CN,CHN,Qinghai
1156546342,Yan’an,36.5952,109.4863,China,CN,CHN,Shaanxi
1192752771,Havana,23.1367,-82.3589,Cuba,CU,CUB,La Habana
1116260534,Phnom Penh,11.5696,104.921,Cambodia,KH,KHM,Phnom Penh
1392576294,Fukuoka,33.5903,130.4019,Japan,JP,JPN,Fukuoka
1706893395,Mogadishu,2.0408,45.3425,Somalia,SO,SOM,Banaadir
1156163376,Jincheng,35.4906,112.8483,China,CN,CHN,Shanxi
1156858793,Lishui,28.45,119.9167,China,CN,CHN,Zhejiang
1156273372,Qingyang,24.8141,118.5792,China,CN,CHN,Fujian
1840020551,Riverside,33.9381,-117.3948,United States,US,USA,California
1840001592,Baltimore,39.3051,-76.6144,United States,US,USA,Maryland
1704000623,Haiphong,20.8,106.6667,Vietnam,VN,VNM,Hải Phòng
1840020364,Las Vegas,36.2333,-115.2654,United States,US,USA,Nevada
1156925734,Laibin,23.7333,109.2333,China,CN,CHN,Guangxi
1586344001,Rawalpindi,33.6007,73.0679,Pakistan,PK,PAK,Punjab
1288181103,Kumasi,6.6833,-1.6167,Ghana,GH,GHA,Ashanti
1840019941,Portland,45.5372,-122.65,United States,US,USA,Oregon
1356705249,Vadodara,22.3,73.2,India,IN,IND,Gujarāt
1036178956,Perth,-31.9522,115.8589,Australia,AU,AUS,Western Australia
1156756494,Puning,23.2993,116.1586,China,CN,CHN,Guangdong
1840022220,San Antonio,29.4658,-98.5253,United States,US,USA,Texas
1156183327,Haikou,20.02,110.32,China,CN,CHN,Hainan
1356692563,Vishākhapatnam,17.7333,83.3167,India,IN,IND,Andhra Pradesh
1792911843,Gaziantep,37.0667,37.3833,Turkey,TR,TUR,Gaziantep
1112348503,Minsk,53.9022,27.5618,Belarus,BY,BLR,Minsk
1840001651,St. Louis,38.6358,-90.2451,United States,US,USA,Missouri
1466965925,Bamako,12.6458,-7.9922,Mali,ML,MLI,Bamako
1218441993,Quito,-0.2186,-78.5097,Ecuador,EC,ECU,Pichincha
1156066465,Pingxiang,27.6333,113.85,China,CN,CHN,Jiangxi
1156438670,Chongzuo,22.4167,107.3667,China,CN,CHN,Guangxi
1792937570,Şanlıurfa,37.1583,38.7917,Turkey,TR,TUR,Şanlıurfa
1180172460,Kananga,-5.897,22.4488,Congo (Kinshasa),CD,COD,Kasaï Central
1586851102,Peshawar,34,71.5,Pakistan,PK,PAK,Khyber Pakhtunkhwa
1392000195,Sapporo,43.0621,141.3544,Japan,JP,JPN,Hokkaidō
1156393765,Jixi,45.2937,130.965,China,CN,CHN,Heilongjiang
1862748204,Caracas,10.5,-66.9333,Venezuela,VE,VEN,Distrito Capital
1156141954,Fuxin,42.0127,121.6486,China,CN,CHN,Liaoning
1826343963,Leeds,53.7997,-1.5492,United Kingdom,GB,GBR,Leeds
1840021491,Sacramento,38.5667,-121.4683,United States,US,USA,California
1454145012,Blantyre,-15.7861,35.0058,Malawi,MW,MWI,Blantyre
1158061376,Tainan,22.9833,120.1833,Taiwan,TW,TWN,Tainan
1642414442,Bucharest,44.4,26.0833,Romania,RO,ROU,Bucureşti
1156760291,Wuwei,37.9278,102.6329,China,CN,CHN,Gansu
1356734039,Bhopāl,23.25,77.4167,India,IN,IND,Madhya Pradesh
1076701712,Curitiba,-25.4297,-49.2719,Brazil,BR,BRA,Paraná
1156898522,Xiping,40.08,113.3,China,CN,CHN,Shanxi
1600057911,Asunción,-25.3,-57.6333,Paraguay,PY,PRY,Asunción
1586619596,Saidu Sharif,34.75,72.3572,Pakistan,PK,PAK,Khyber Pakhtunkhwa
1040261752,Vienna,48.2083,16.3731,Austria,AT,AUT,Wien
1760366651,Aleppo,36.2,37.15,Syria,SY,SYR,Ḩalab
1276041799,Hamburg,53.55,10,Germany,DE,DEU,Hamburg
1404588252,Meru,0.05,37.65,Kenya,KE,KEN,Meru
1178340306,Brazzaville,-4.2667,15.2833,Congo (Brazzaville),CG,COG,Brazzaville
1840015099,Orlando,28.4772,-81.3369,United States,US,USA,Florida
1792520282,Mersin,36.8,34.6167,Turkey,TR,TUR,Mersin
1398351701,Almaty,43.25,76.9,Kazakhstan,KZ,KAZ,Almaty
1170179113,Barranquilla,10.96,-74.8,Colombia,CO,COL,Atlántico
1392622735,Kyōto,35.0111,135.7669,Japan,JP,JPN,Kyōto
1076607274,Manaus,-3.1,-60.0167,Brazil,BR,BRA,Amazonas
1156202749,Liaoyang,41.2643,123.1772,China,CN,CHN,Liaoning
1156140738,Baiyin,36.5448,104.1766,China,CN,CHN,Gansu
1840021570,San Jose,37.3019,-121.8486,United States,US,USA,California
1616024847,Warsaw,52.2167,21.0333,Poland,PL,POL,Mazowieckie
1156672254,Shengli,37.45,118.4667,China,CN,CHN,Shandong
1180506234,Lubumbashi,-11.6697,27.4581,Congo (Kinshasa),CD,COD,Haut-Katanga
1760685964,Damascus,33.5131,36.2919,Syria,SY,SYR,Dimashq
1156051957,Shuyangzha,34.1299,118.7734,China,CN,CHN,Jiangsu
1156805441,Shangqiu,34.4504,115.65,China,CN,CHN,Henan
1364023865,Eşfahān,32.6447,51.6675,Iran,IR,IRN,Eşfahān
1348611435,Budapest,47.4983,19.0408,Hungary,HU,HUN,Budapest
1156339225,Heihe,50.2458,127.4886,China,CN,CHN,Heilongjiang
1894157390,Lusaka,-15.4167,28.2833,Zambia,ZM,ZMB,Lusaka
1792536241,Diyarbakır,37.9108,40.2367,Turkey,TR,TUR,Diyarbakır
1356475483,Chinchvad,18.6278,73.8131,India,IN,IND,Mahārāshtra
1156227167,Shuozhou,39.3408,112.4292,China,CN,CHN,Shanxi
1076376829,Vitória,-20.324,-40.366,Brazil,BR,BRA,Espírito Santo
1840000596,Cleveland,41.4767,-81.6804,United States,US,USA,Ohio
1840001254,Pittsburgh,40.4396,-79.9762,United States,US,USA,Pennsylvania
1682169241,Mecca,21.4225,39.8261,Saudi Arabia,SA,SAU,Makkah al Mukarramah
1356821429,Patna,25.61,85.1414,India,IN,IND,Bihār
1368194914,Mosul,36.3667,43.1167,Iraq,IQ,IRQ,Nīnawá
1840019590,Austin,30.3004,-97.7522,United States,US,USA,Texas
1156025536,Sanzhou,30.82,108.4,China,CN,CHN,Chongqing
1324568159,Conakry,9.5092,-13.7122,Guinea,GN,GIN,Conakry
1800406299,Kampala,0.3136,32.5811,Uganda,UG,UGA,Kampala
1484003694,Ecatepec,19.6097,-99.06,Mexico,MX,MEX,México
1840003814,Cincinnati,39.1413,-84.5061,United States,US,USA,Ohio
1360051337,Makassar,-5.1331,119.4136,Indonesia,ID,IDN,Sulawesi Selatan
1156245000,Yushan,31.3867,120.9766,China,CN,CHN,Jiangsu
1356929498,Ludhiāna,30.9083,75.8486,India,IN,IND,Punjab
1826292220,Newcastle,55.0077,-1.6578,United Kingdom,GB,GBR,Newcastle upon Tyne
1360962899,Depok,-6.394,106.8225,Indonesia,ID,IDN,Jawa Barat
1158025380,Zhongli,24.965,121.2168,Taiwan,TW,TWN,Taoyuan
1840008535,Kansas City,39.1239,-94.5541,United States,US,USA,Missouri
1504023252,Rabat,34.0253,-6.8361,Morocco,MA,MAR,Rabat-Salé-Kénitra
1854029208,Ouagadougou,12.3572,-1.5353,Burkina Faso,BF,BFA,Centre
1608906877,Davao,7.0667,125.6,Philippines,PH,PHL,Davao
1840034000,Manhattan,40.7834,-73.9662,United States,US,USA,New York
1360745537,Semarang,-6.9667,110.4167,Indonesia,ID,IDN,Jawa Tengah
1156359072,Yinchuan,38.4795,106.2254,China,CN,CHN,Ningxia
1586256291,Multan,30.1978,71.4711,Pakistan,PK,PAK,Punjab
1608897690,Caloocan City,14.65,120.9667,Philippines,PH,PHL,Caloocan
1716196799,Harare,-17.8292,31.0522,Zimbabwe,ZW,ZWE,Harare
1643399240,Novosibirsk,55.0333,82.9167,Russia,RU,RUS,Novosibirskaya Oblast’
1156883901,Chengtangcun,35.0833,117.15,China,CN,CHN,Shandong
1356187395,Āgra,27.18,78.02,India,IN,IND,Uttar Pradesh
1364258511,Karaj,35.8327,50.9915,Iran,IR,IRN,Alborz
1840030084,Indianapolis,39.7771,-86.1458,United States,US,USA,Indiana
1156038165,Jingdezhen,29.2942,117.2036,China,CN,CHN,Jiangxi
1484416394,Puebla,19.0333,-98.1833,Mexico,MX,MEX,Puebla
1356172246,Kalyān,19.2502,73.1602,India,IN,IND,Mahārāshtra
1356257289,Madurai,9.9197,78.1194,India,IN,IND,Tamil Nādu
1586400472,Gujranwala,32.15,74.1833,Pakistan,PK,PAK,Punjab
1156097909,Benxi,41.292,123.761,China,CN,CHN,Liaoning
1356501259,Jamshedpur,22.8,86.1833,India,IN,IND,Jharkhand
1156722242,Zhuhai,22.2769,113.5678,China,CN,CHN,Guangdong
1076137337,Recife,-8.0539,-34.8808,Brazil,BR,BRA,Pernambuco
1840003760,Columbus,39.9862,-82.985,United States,US,USA,Ohio
1364141756,Tabrīz,38.0833,46.2833,Iran,IR,IRN,Āz̄arbāyjān-e Sharqī
1214985348,Santiago,19.5,-70.67,Dominican Republic,DO,DOM,Cibao Norte
1862072711,Maracaibo,10.6333,-71.6333,Venezuela,VE,VEN,Zulia
1156421449,Beihai,21.4667,109.1,China,CN,CHN,Guangxi
1156245904,Shuangyashan,46.6388,131.1545,China,CN,CHN,Heilongjiang
1392978082,Kōbe,34.6913,135.183,Japan,JP,JPN,Hyōgo
1840014557,Charlotte,35.208,-80.8304,United States,US,USA,North Carolina
1156817119,Yucheng,29.9888,103.0007,China,CN,CHN,Sichuan
1156901538,Changshu,31.65,120.7333,China,CN,CHN,Jiangsu
1156173813,Ximeicun,24.9633,118.3811,China,CN,CHN,Fujian
1156545200,Jianguang,28.1958,115.7833,China,CN,CHN,Jiangxi
1410000087,Gwangju,35.1667,126.9167,"Korea, South",KR,KOR,Gwangju
1156046916,Xushan,30.1697,121.2665,China,CN,CHN,Zhejiang
1156165517,Guiping,23.4,110.0833,China,CN,CHN,Guangxi
1356562598,Nāsik,20,73.7833,India,IN,IND,Mahārāshtra
1076658221,Porto Alegre,-30.0328,-51.23,Brazil,BR,BRA,Rio Grande do Sul
1156072884,Zhangjiajie,29.1255,110.4844,China,CN,CHN,Hunan
1862309871,Valencia,10.1667,-68,Venezuela,VE,VEN,Carabobo
1840003871,Virginia Beach,36.7335,-76.0435,United States,US,USA,Virginia
1410993875,Daejeon,36.351,127.385,"Korea, South",KR,KOR,Daejeon
1276692352,Munich,48.1372,11.5755,Germany,DE,DEU,Bavaria
1643582706,Yekaterinburg,56.8356,60.6128,Russia,RU,RUS,Sverdlovskaya Oblast’
1554435911,Auckland,-36.85,174.7833,New Zealand,NZ,NZL,Auckland
1156057251,Yunfu,22.9242,112.0353,China,CN,CHN,Guangdong
1156527426,Huangshan,29.7132,118.3151,China,CN,CHN,Anhui
1156796734,Huazhou,32.6832,112.079,China,CN,CHN,Henan
1364432238,Shīrāz,29.61,52.5425,Iran,IR,IRN,Fārs
1484811199,León de los Aldama,21.1167,-101.6833,Mexico,MX,MEX,Guanajuato
1156114238,Pizhou,34.3422,118.0097,China,CN,CHN,Jiangsu
1360902897,Palembang,-2.9833,104.7644,Indonesia,ID,IDN,Sumatera Selatan
1804588111,Kharkiv,50,36.2292,Ukraine,UA,UKR,Kharkivs’ka Oblast’
1392879600,Kawanakajima,35.53,139.705,Japan,JP,JPN,Kanagawa
1156944106,Lianjiang,21.6146,110.2794,China,CN,CHN,Guangdong
1156131504,Chizhou,30.6583,117.4849,China,CN,CHN,Anhui
1156863840,Leizhou,20.9147,110.0806,China,CN,CHN,Guangdong
1156817541,Guyuan,36.008,106.2782,China,CN,CHN,Ningxia
1156993705,Rui’an,27.778,120.6526,China,CN,CHN,Zhejiang
1826141026,Birstall,52.6736,-1.12,United Kingdom,GB,GBR,Leicester
1512035506,Muscat,23.6139,58.5922,Oman,OM,OMN,Masqaţ
1156114258,Hebi,35.7497,114.2887,China,CN,CHN,Henan
1156060544,Jingling,30.6667,113.1667,China,CN,CHN,Hubei
1840033999,Bronx,40.8501,-73.8662,United States,US,USA,New York
1528799905,The Hague,52.08,4.27,Netherlands,NL,NLD,Zuid-Holland
1566679132,Owerri,5.4833,7.0333,Nigeria,NG,NGA,Imo
1784152993,Sharjah,25.3575,55.3919,United Arab Emirates,AE,ARE,Ash Shāriqah
1356013205,Farīdābād,28.4333,77.3167,India,IN,IND,Haryāna
1496024767,Ulaanbaatar,47.9203,106.9172,Mongolia,MN,MNG,Ulaanbaatar
1076034054,Goiânia,-16.6789,-49.2539,Brazil,BR,BRA,Goiás
1076646823,Belém,-1.4558,-48.5039,Brazil,BR,BRA,Pará
1792945815,Kayseri,38.7333,35.4833,Turkey,TR,TUR,Kayseri
1156900058,Yueqing,28.1188,120.9621,China,CN,CHN,Zhejiang
1688374696,Belgrade,44.8167,20.4667,Serbia,RS,SRB,Beograd
1156157078,Pingdu,36.7833,119.9556,China,CN,CHN,Shandong
1356840670,Aurangābād,19.88,75.32,India,IN,IND,Mahārāshtra
1156592042,Yutan,28.3147,112.554,China,CN,CHN,Hunan
1156052493,Wenling,28.3797,121.3718,China,CN,CHN,Zhejiang
1586306717,Islamabad,33.6989,73.0369,Pakistan,PK,PAK,Islāmābād
1840003046,Milwaukee,43.0642,-87.9673,United States,US,USA,Wisconsin
1380724377,Milan,45.4669,9.19,Italy,IT,ITA,Lombardy
1100762037,Sofia,42.6975,23.3241,Bulgaria,BG,BGR,Sofia-Grad
1036538171,Adelaide,-34.9289,138.6011,Australia,AU,AUS,South Australia
1792169057,Samsun,41.2867,36.33,Turkey,TR,TUR,Samsun
1356317190,Rājkot,22.2969,70.7984,India,IN,IND,Gujarāt
1050667339,Khulna,22.8167,89.55,Bangladesh,BD,BGD,Khulna
1032803249,Córdoba,-31.4167,-64.1833,Argentina,AR,ARG,Córdoba
1076730420,Guarulhos,-23.4667,-46.5333,Brazil,BR,BRA,São Paulo
1484840083,Juárez,31.7386,-106.487,Mexico,MX,MEX,Chihuahua
1203744823,Prague,50.0833,14.4167,Czechia,CZ,CZE,"Praha, Hlavní Město"
1858107000,Montevideo,-34.8667,-56.1667,Uruguay,UY,URY,Montevideo
1180399586,Mbuji-Mayi,-6.1209,23.5967,Congo (Kinshasa),CD,COD,Kasaï Oriental
1156893569,Fuqing,25.7232,119.3735,China,CN,CHN,Fujian
1156761230,Xintai,35.91,117.78,China,CN,CHN,Shandong
1634459660,Doha,25.3,51.5333,Qatar,QA,QAT,Ad Dawḩah
1392017719,Saitama,35.8617,139.6453,Japan,JP,JPN,Saitama
1392373695,Hiroshima,34.3853,132.4553,Japan,JP,JPN,Hiroshima
1356390476,Meerut,28.99,77.7,India,IN,IND,Uttar Pradesh
1156326773,Yushu,44.8249,126.5451,China,CN,CHN,Jilin
1156122888,Rongcheng,26.2312,104.0966,China,CN,CHN,Yunnan
1156157844,Yangquan,37.8576,113.5762,China,CN,CHN,Shanxi
1156052713,Haicheng,40.8523,122.7474,China,CN,CHN,Liaoning
1156785303,Gaozhou,21.9392,110.8461,China,CN,CHN,Guangdong
1156301061,Yingtan,28.2333,117,China,CN,CHN,Jiangxi
1156662372,Huaiyin,33.58,119.03,China,CN,CHN,Jiangsu
1156139322,Wuzhong,37.9874,106.1919,China,CN,CHN,Ningxia
1356115460,Jabalpur,23.1667,79.9333,India,IN,IND,Madhya Pradesh
1356681152,Thāne,19.18,72.9633,India,IN,IND,Mahārāshtra
1156180353,Zhangye,38.9355,100.4553,China,CN,CHN,Gansu
1156323529,Rucheng,32.3852,120.5634,China,CN,CHN,Jiangsu
1643012126,Nizhniy Novgorod,56.3269,44.0075,Russia,RU,RUS,Nizhegorodskaya Oblast’
1340762485,Comayagüela,14.0833,-87.2167,Honduras,HN,HND,Francisco Morazán
1156203000,Yangshe,31.8775,120.5512,China,CN,CHN,Jiangsu
1156668366,Shaoyang,32.9387,119.8404,China,CN,CHN,Jiangsu
1356103392,Dhanbād,23.7928,86.435,India,IN,IND,Jharkhand
1156757274,Yichun,47.7235,128.8893,China,CN,CHN,Heilongjiang
1156207332,Laiwu,36.1833,117.6667,China,CN,CHN,Shandong
1643101260,Kazan,55.7908,49.1144,Russia,RU,RUS,Tatarstan
1156828380,Dayan,26.8808,100.2208,China,CN,CHN,Yunnan
1410679777,Suwon,37.2858,127.01,"Korea, South",KR,KOR,Gyeonggi
1156033234,Jiangyin,31.9087,120.2653,China,CN,CHN,Jiangsu
1156841802,Yongcheng,33.9317,116.4459,China,CN,CHN,Henan
1124690423,Calgary,51.05,-114.0667,Canada,CA,CAN,Alberta
1704783472,Cần Thơ,10.0333,105.7833,Vietnam,VN,VNM,Cần Thơ
1566342270,Abuja,9.0556,7.4914,Nigeria,NG,NGA,Federal Capital Territory
1156078044,Yiwu,29.3081,120.0698,China,CN,CHN,Zhejiang
1104468217,Mandalay,21.9769,96.0869,Burma,MM,MMR,Mandalay
1156137209,Beidao,34.6,105.92,China,CN,CHN,Gansu
1368714645,Al Başrah,30.4889,47.81,Iraq,IQ,IRQ,Al Başrah
1156070389,Shuangshui,26.5944,104.8333,China,CN,CHN,Guizhou
1724991838,Sevilla,37.3828,-5.9731,Spain,ES,ESP,Andalusia
1076575691,Vila Velha,3.2167,-51.2167,Brazil,BR,BRA,Amapá
1356718332,Allahābād,25.455,81.84,India,IN,IND,Uttar Pradesh
1356145782,Vārānasi,25.3189,83.0128,India,IN,IND,Uttar Pradesh
1788742103,Tunis,36.8008,10.18,Tunisia,TN,TUN,Tunis
1643224011,Chelyabinsk,55.15,61.4,Russia,RU,RUS,Chelyabinskaya Oblast’
1404512373,Mombasa,-4.05,39.6667,Kenya,KE,KEN,Mombasa
1840003289,Providence,41.823,-71.4187,United States,US,USA,Rhode Island
1364701633,Qom,34.6461,50.8789,Iran,IR,IRN,Qom
1566540296,Maiduguri,11.8333,13.15,Nigeria,NG,NGA,Borno
1508074843,Maputo,-25.9153,32.5764,Mozambique,MZ,MOZ,Maputo
1032770677,Rosario,-32.9575,-60.6394,Argentina,AR,ARG,Santa Fe
1566080151,Benin City,6.3176,5.6145,Nigeria,NG,NGA,Edo
1156138735,Xinyu,27.795,114.9242,China,CN,CHN,Jiangxi
1364350188,Ahvāz,31.3203,48.6692,Iran,IR,IRN,Khūzestān
1372595407,Dublin,53.3425,-6.2658,Ireland,IE,IRL,Dublin
1840015031,Jacksonville,30.3322,-81.6749,United States,US,USA,Florida
1682345785,Medina,24.4667,39.6,Saudi Arabia,SA,SAU,Al Madīnah al Munawwarah
1356442950,Srīnagar,34.0911,74.8061,India,IN,IND,Jammu and Kashmīr
1643360863,Omsk,54.9667,73.3833,Russia,RU,RUS,Omskaya Oblast’
1156282637,Huazhou,21.654,110.6294,China,CN,CHN,Guangdong
1360503809,Cilacap,-7.7167,109.017,Indonesia,ID,IDN,Jawa Tengah
1156216927,Xiantao,30.3833,113.4,China,CN,CHN,Hubei
1360243491,Bandar Lampung,-5.4294,105.2625,Indonesia,ID,IDN,Lampung
1643205757,Samara,53.1833,50.1167,Russia,RU,RUS,Samarskaya Oblast’
1156249346,Guankou,28.1417,113.625,China,CN,CHN,Hunan
1410134602,Ulsan,35.55,129.3167,"Korea, South",KR,KOR,Ulsan
1156656582,Dingzhou,38.5158,114.9845,China,CN,CHN,Hebei
1076145766,Campinas,-22.9009,-47.0573,Brazil,BR,BRA,São Paulo
1156490109,Lianyuan,27.6961,111.6659,China,CN,CHN,Hunan
1156102432,Rongcheng,29.8239,112.9019,China,CN,CHN,Hubei
1156441554,Kaiyuan,36.0656,113.8153,China,CN,CHN,Henan
1104838105,Nay Pyi Taw,19.8028,96.1583,Burma,MM,MMR,Nay Pyi Taw
1686604760,Dakar,14.7319,-17.4572,Senegal,SN,SEN,Dakar
1156504227,Zhuji,29.7169,120.2314,China,CN,CHN,Zhejiang
1484198680,Zapopan,20.7167,-103.4,Mexico,MX,MEX,Jalisco
1156057789,Leiyang,26.4179,112.8457,China,CN,CHN,Hunan
1156901342,Dadukou,26.5849,101.7149,China,CN,CHN,Sichuan
1586556108,Quetta,30.192,67.007,Pakistan,PK,PAK,Balochistān
1356926507,Amritsar,31.6167,74.85,India,IN,IND,Punjab
1604422141,Callao,-12.0611,-77.1333,Peru,PE,PER,Callao
1356076391,Alīgarh,27.88,78.08,India,IN,IND,Uttar Pradesh
1156748426,Yingchuan,34.1511,113.4733,China,CN,CHN,Henan
1340344059,Tegucigalpa,14.0942,-87.2067,Honduras,HN,HND,Francisco Morazán
1484016661,Ciudad Nezahualcóyotl,19.41,-99.03,Mexico,MX,MEX,México
1434201852,Tripoli,32.8752,13.1875,Libya,LY,LBY,Ţarābulus
1643013518,Rostov,47.2333,39.7167,Russia,RU,RUS,Rostovskaya Oblast’
1484074285,Nezahualcóyotl,19.4,-98.9889,Mexico,MX,MEX,México
1356763571,Bhiwandi,19.3,73.0667,India,IN,IND,Mahārāshtra
1156200283,Zhoushan,30.0162,122.0988,China,CN,CHN,Zhejiang
1268203191,Tbilisi,41.7225,44.7925,Georgia,GE,GEO,Tbilisi
1643722928,Ufa,54.7333,55.9667,Russia,RU,RUS,Bashkortostan
1504861997,Fès,34.0433,-5.0033,Morocco,MA,MAR,Fès-Meknès
1704863046,Biên Hòa,10.9575,106.8426,Vietnam,VN,VNM,Đồng Nai
1484788702,Mexicali,32.6633,-115.4678,Mexico,MX,MEX,Baja California
1356363967,Gwalior,26.215,78.1931,India,IN,IND,Madhya Pradesh
1156255711,Ankang,32.6877,109.0235,China,CN,CHN,Shaanxi
1566683694,Ikare,7.5304,5.76,Nigeria,NG,NGA,Ondo
1156541759,Hegang,47.3139,130.2775,China,CN,CHN,Heilongjiang
1840021383,Salt Lake City,40.7777,-111.9306,United States,US,USA,Utah
1356071083,Bhilai,21.2167,81.4333,India,IN,IND,Chhattīsgarh
1156221984,Yuyao,30.0372,121.1546,China,CN,CHN,Zhejiang
1148708596,N’Djamena,12.11,15.05,Chad,TD,TCD,Ville de N’Djaména
1156149248,Hanchuan,30.652,113.8274,China,CN,CHN,Hubei
1156696810,Gongzhuling,43.5036,124.8088,China,CN,CHN,Jilin
1208763942,Copenhagen,55.6786,12.5635,Denmark,DK,DNK,Hovedstaden
1400221568,Irbid,32.5556,35.85,Jordan,JO,JOR,Irbid
1356986516,Hāora,22.59,88.31,India,IN,IND,West Bengal
1276015998,Cologne,50.9422,6.9578,Germany,DE,DEU,North Rhine-Westphalia
1643544975,Krasnoyarsk,56.0167,92.8667,Russia,RU,RUS,Krasnoyarskiy Kray
1156292419,Yicheng,31.3697,119.8239,China,CN,CHN,Jiangsu
1156935002,Mizhou,36,119.4167,China,CN,CHN,Shandong
1840036155,Nashville,36.1715,-86.7843,United States,US,USA,Tennessee
1051074169,Yerevan,40.1814,44.5144,Armenia,AM,ARM,Yerevan
1356110588,Rānchi,23.3556,85.3347,India,IN,IND,Jharkhand
1398516045,Nur-Sultan,51.1333,71.4333,Kazakhstan,KZ,KAZ,Astana
1478414984,Nouakchott,18.0783,-15.9744,Mauritania,MR,MRT,
1710271883,Vereeniging,-26.6736,27.9319,South Africa,ZA,ZAF,Gauteng
1840001698,Richmond,37.5295,-77.4756,United States,US,USA,Virginia
1076819308,São Luís,-2.53,-44.3028,Brazil,BR,BRA,Maranhão
1340568412,San Pedro Sula,15.5,-88.0333,Honduras,HN,HND,Cortés
1156331200,Taixing,32.1724,120.0142,China,CN,CHN,Jiangsu
1840015457,Memphis,35.1046,-89.9773,United States,US,USA,Tennessee
1410511255,Goyang,37.6564,126.835,"Korea, South",KR,KOR,Gyeonggi
1356807575,Bezwāda,16.5167,80.6167,India,IN,IND,Andhra Pradesh
1124290735,Edmonton,53.5344,-113.4903,Canada,CA,CAN,Alberta
1156155575,Xishan,27.6609,113.4946,China,CN,CHN,Hunan
1862860739,Barquisimeto,10.0678,-69.3467,Venezuela,VE,VEN,Lara
1392457903,Sendai,38.2683,140.8694,Japan,JP,JPN,Miyagi
1643811064,Voronezh,51.6717,39.2106,Russia,RU,RUS,Voronezhskaya Oblast’
1643294442,Perm,58.0139,56.2489,Russia,RU,RUS,Permskiy Kray
1410592618,Changwon,35.2281,128.6811,"Korea, South",KR,KOR,Gyeongnam
1156956616,Zhongwei,37.5139,105.1884,China,CN,CHN,Ningxia
1156787809,Shouguang,36.8833,118.7333,China,CN,CHN,Shandong
1360771925,Bogor,-6.6,106.8,Indonesia,ID,IDN,Jawa Barat
1840014497,Raleigh,35.8325,-78.6435,United States,US,USA,North Carolina
1170886102,Cartagena,10.4236,-75.5253,Colombia,CO,COL,Bolívar
1356739179,Chandīgarh,30.7353,76.7911,India,IN,IND,Chandīgarh
1417191971,Bishkek,42.8667,74.5667,Kyrgyzstan,KG,KGZ,Bishkek
1528355309,Amsterdam,52.35,4.9166,Netherlands,NL,NLD,Noord-Holland
1508768577,Matola,-25.9667,32.4667,Mozambique,MZ,MOZ,Maputo
1566373448,Ogbomoso,8.1333,4.25,Nigeria,NG,NGA,Oyo
1795049992,Ashgabat,37.95,58.3833,Turkmenistan,TM,TKM,Ahal
1156414637,E’zhou,30.3972,114.8842,China,CN,CHN,Hubei
1076440479,Maceió,-9.6658,-35.735,Brazil,BR,BRA,Alagoas
1562932886,Niamey,13.5086,2.1111,Niger,NE,NER,Niamey
1558296252,Managua,12.15,-86.2667,Nicaragua,NI,NIC,Managua
1360893799,Patam,1.0678,104.0167,Indonesia,ID,IDN,Kepulauan Riau
1792519395,Tekirdağ,40.9833,27.5167,Turkey,TR,TUR,Tekirdağ
1156451663,Linhai,28.8523,121.1409,China,CN,CHN,Zhejiang
1818909612,Shubrā al Khaymah,30.1286,31.2422,Egypt,EG,EGY,Al Qalyūbīyah
1430477826,Monrovia,6.3106,-10.8047,Liberia,LR,LBR,Montserrado
1156476417,Wafangdian,39.6271,121.9972,China,CN,CHN,Liaoning
1156631720,Zhongxiang,31.169,112.5853,China,CN,CHN,Hubei
1398791401,Shymkent,42.3,69.6,Kazakhstan,KZ,KAZ,Ongtüstik Qazaqstan
1840001839,New Orleans,30.0687,-89.9288,United States,US,USA,Louisiana
1643577201,Volgograd,48.7,44.4833,Russia,RU,RUS,Volgogradskaya Oblast’
1332401940,Port-au-Prince,18.5425,-72.3386,Haiti,HT,HTI,Ouest
1356779323,Mysore,12.3086,76.6531,India,IN,IND,Karnātaka
1804178102,Odesa,46.4775,30.7326,Ukraine,UA,UKR,Odes’ka Oblast’
1524589448,Kathmandu,27.7167,85.3667,Nepal,NP,NPL,Bāgmatī
1356374983,Raipur,21.2379,81.6337,India,IN,IND,Chhattīsgarh
1250774553,Nice,43.7034,7.2663,France,FR,FRA,Provence-Alpes-Côte d’Azur
1604723954,Arequipa,-16.3988,-71.5369,Peru,PE,PER,Arequipa
1566070649,Port Harcourt,4.75,7,Nigeria,NG,NGA,Rivers
1528892850,Rotterdam,51.92,4.48,Netherlands,NL,NLD,Zuid-Holland
1840030815,Louisville,38.1663,-85.6485,United States,US,USA,Kentucky
1156197076,Zaoyang,32.1287,112.7581,China,CN,CHN,Hubei
1156462734,Shuizhai,33.4433,114.8994,China,CN,CHN,Henan
1356820310,Kota,25.18,75.83,India,IN,IND,Rājasthān
1784176710,Abu Dhabi,24.4781,54.3686,United Arab Emirates,AE,ARE,Abū Z̧aby
1752425602,Stockholm,59.3294,18.0686,Sweden,SE,SWE,Stockholm
1124399363,Ottawa,45.4247,-75.695,Canada,CA,CAN,Ontario
1232791236,Asmara,15.3333,38.9167,Eritrea,ER,ERI,Ma’ākel
1694085071,Freetown,8.4833,-13.2331,Sierra Leone,SL,SLE,Western Area
1376261644,Jerusalem,31.7833,35.2167,Israel,IL,ISR,Southern
1591672475,Panama City,9,-79.5,Panama,PA,PAN,Panamá
1768409132,Lomé,6.1319,1.2228,Togo,TG,TGO,Maritime
1266952885,Libreville,0.3901,9.4544,Gabon,GA,GAB,Estuaire
1191233290,Zagreb,45.8,15.95,Croatia,HR,HRV,"Zagreb, Grad"
1762930616,Dushanbe,38.5731,68.7864,Tajikistan,TJ,TJK,Dushanbe
1454688499,Lilongwe,-13.9833,33.7833,Malawi,MW,MWI,Lilongwe
1204955174,Cotonou,6.4,2.52,Benin,BJ,BEN,Littoral
1418732714,Vientiane,17.9667,102.6,Laos,LA,LAO,Viangchan
1144251314,Colombo,6.9167,79.8333,Sri Lanka,LK,LKA,Western
1646923541,Kigali,-1.9536,30.0606,Rwanda,RW,RWA,Kigali
1710176249,Pretoria,-25.7464,28.1881,South Africa,ZA,ZAF,Gauteng
1140080881,Bangui,4.3732,18.5628,Central African Republic,CF,CAF,Bangui
1124224963,Winnipeg,49.8844,-97.1464,Canada,CA,CAN,Manitoba
1124823933,Quebec City,46.8139,-71.2081,Canada,CA,CAN,Quebec
1428586192,Riga,56.9475,24.1069,Latvia,LV,LVA,Rīga
1578324706,Oslo,59.9111,10.7528,Norway,NO,NOR,Oslo
1498011437,Chisinau,47.0056,28.8575,Moldova,MD,MDA,Chişinău
1300715560,Athens,37.9794,23.7161,Greece,GR,GRC,Attikí
1108101689,Bujumbura,-3.3825,29.3611,Burundi,BI,BDI,Bujumbura Mairie
1246177997,Helsinki,60.1756,24.9342,Finland,FI,FIN,Uusimaa
1807600615,Skopje,41.9833,21.4333,Macedonia,MK,MKD,Skopje
1414102075,Kuwait City,29.375,47.98,Kuwait,KW,KWT,Al ‘Āşimah
1388709177,Kingston,17.9714,-76.7931,Jamaica,JM,JAM,Kingston
1440887149,Vilnius,54.6833,25.2833,Lithuania,LT,LTU,Vilniaus Miestas
1222647454,San Salvador,13.6989,-89.1914,El Salvador,SV,SLV,San Salvador
1262028958,Djibouti,11.595,43.1481,Djibouti,DJ,DJI,Djibouti
1620619017,Lisbon,38.7452,-9.1604,Portugal,PT,PRT,Lisboa
1124158530,Kitchener,43.4186,-80.4728,Canada,CA,CAN,Ontario
1233260021,Tallinn,59.4372,24.745,Estonia,EE,EST,Harjumaa
1710680650,Cape Town,-33.925,18.425,South Africa,ZA,ZAF,Western Cape
1703195001,Bratislava,48.1447,17.1128,Slovakia,SK,SVK,Bratislavský
1008162156,Tirana,41.33,19.82,Albania,AL,ALB,Tiranë
1036142029,Canberra,-35.2931,149.1269,Australia,AU,AUS,Australian Capital Territory
1554772152,Wellington,-41.2889,174.7772,New Zealand,NZ,NZL,Wellington
1422847713,Beirut,33.8869,35.5131,Lebanon,LB,LBN,Beyrouth
1834288497,Dodoma,-6.25,35.75,Tanzania,TZ,TZA,Dodoma
1124130981,Halifax,44.6475,-63.5906,Canada,CA,CAN,Nova Scotia
1624168850,Bissau,11.8592,-15.5956,Guinea-Bissau,GW,GNB,Bissau
1728444337,Juba,4.85,31.6,South Sudan,SS,SSD,Central Equatoria
1598685395,Port Moresby,-9.4789,147.1494,Papua New Guinea,PG,PNG,National Capital
1384683557,Yamoussoukro,6.8161,-5.2742,Côte D’Ivoire,CI,CIV,Yamoussoukro
1124147219,Victoria,48.4283,-123.3647,Canada,CA,CAN,British Columbia
1426977668,Maseru,-29.31,27.48,Lesotho,LS,LSO,Maseru
1196944155,Nicosia,35.1725,33.365,Cyprus,CY,CYP,Lefkosía
1516802003,Windhoek,-22.57,17.0836,Namibia,NA,NAM,Khomas
1204172060,Porto-Novo,6.4833,2.6167,Benin,BJ,BEN,Ouémé
1068823873,Sucre,-19.0431,-65.2592,Bolivia,BO,BOL,Chuquisaca
1188749877,San José,9.9333,-84.0833,Costa Rica,CR,CRI,San José
1705917455,Ljubljana,46.05,14.5167,Slovenia,SI,SVN,Ljubljana
1070966777,Sarajevo,43.8667,18.4167,Bosnia And Herzegovina,BA,BIH,"Bosnia and Herzegovina, Federation of"
1044318561,Nassau,25.0667,-77.3333,"Bahamas, The",BS,BHS,
1710495933,Bloemfontein,-29.1,26.2167,South Africa,ZA,ZAF,Free State
1072756768,Gaborone,-24.6569,25.9086,Botswana,BW,BWA,Gaborone
1740518660,Paramaribo,5.8667,-55.1667,Suriname,SR,SUR,Paramaribo
1626308942,Dili,-8.5586,125.5736,Timor-Leste,TL,TLS,Díli
1901760068,Pristina,42.6667,21.1667,Kosovo,XK,XKS,Prishtinë
1328160906,Georgetown,6.7833,-58.1667,Guyana,GY,GUY,Demerara-Mahaica
1226861333,Malabo,3.7521,8.7737,Equatorial Guinea,GQ,GNQ,Bioko Norte
1056469830,Brussels,50.8467,4.3517,Belgium,BE,BEL,Brussels-Capital Region
1462441685,Male,4.175,73.5083,Maldives,MV,MDV,Maale
1499454516,Podgorica,42.4397,19.2661,Montenegro,ME,MNE,Podgorica
1048989486,Manama,26.2167,50.5831,Bahrain,BH,BHR,Al ‘Āşimah
1480131261,Port Louis,-20.1667,57.5,Mauritius,MU,MUS,Port Louis
1356215164,New Delhi,28.7,77.2,India,IN,IND,Delhi
1756374318,Bern,46.948,7.4474,Switzerland,CH,CHE,Bern
1352327190,Reykjavík,64.1475,-21.935,Iceland,IS,ISL,
1132398770,Praia,14.9177,-23.5092,Cabo Verde,CV,CPV,Praia
1442262731,Luxembourg,49.6106,6.1328,Luxembourg,LU,LUX,Luxembourg
1144239330,Sri Jayewardenepura Kotte,6.9,79.9164,Sri Lanka,LK,LKA,Western
1052274244,Bridgetown,13.0975,-59.6167,Barbados,BB,BRB,Saint Michael
1174793581,Moroni,-11.7036,43.2536,Comoros,KM,COM,Grande Comore
1064010361,Thimphu,27.4833,89.6333,Bhutan,BT,BTN,Thimphu
1748811945,Mbabane,-26.3167,31.1333,Swaziland,SZ,SWZ,Hhohho
1090737486,Honiara,-9.4333,159.95,Solomon Islands,SB,SLB,Honiara
1242615095,Suva,-18.1333,178.4333,Fiji,FJ,FJI,Rewa
1662922505,Castries,14.0167,-60.9833,Saint Lucia,LC,LCA,Castries
1678301324,São Tomé,0.3333,6.7333,Sao Tome And Principe,ST,STP,São Tomé
1548805075,Port-Vila,-17.75,168.3,Vanuatu,VU,VUT,Shefa
1096465895,Bandar Seri Begawan,4.9167,114.9167,Brunei,BN,BRN,Brunei and Muara
1492854256,Monaco,43.7396,7.4069,Monaco,MC,MCO,
1108778000,Gitega,-3.4264,29.9306,Burundi,BI,BDI,Gitega
1780670676,Port of Spain,10.6667,-61.5167,Trinidad And Tobago,TT,TTO,Port of Spain
1882489296,Apia,-13.8333,-171.8333,Samoa,WS,WSM,Tuamasaga
1438317747,Vaduz,47.1415,9.5215,Liechtenstein,LI,LIE,Vaduz
1270723713,Banjul,13.4531,-16.5775,"Gambia, The",GM,GMB,Banjul
1296152641,Tarawa,1.3382,173.0176,Kiribati,KI,KIR,
1690193579,Victoria,-4.6236,55.4544,Seychelles,SC,SYC,English River
1584000000,Majuro,7.1167,171.3667,Marshall Islands,MH,MHL,Majuro
1670376659,Kingstown,13.1667,-61.2333,Saint Vincent And The Grenadines,VC,VCT,Saint George
1776737461,Nuku‘alofa,-21.1347,-175.2083,Tonga,TO,TON,Tongatapu
1028912067,Saint John’s,17.1211,-61.8447,Antigua And Barbuda,AG,ATG,Saint John
1020828846,Andorra la Vella,42.5,1.5,Andorra,AD,AND,Andorra la Vella
1084586375,Belmopan,17.25,-88.7675,Belize,BZ,BLZ,Cayo
1212060440,Roseau,15.3,-61.3833,Dominica,DM,DMA,Saint George
1659198919,Basseterre,17.2983,-62.7342,Saint Kitts And Nevis,KN,KNA,Saint George Basseterre
1016976740,Pago Pago,-14.274,-170.7046,American Samoa,AS,ASM,
1470574399,Valletta,35.8978,14.5125,Malta,MT,MLT,Valletta
1583008885,Palikir,6.9178,158.185,"Micronesia, Federated States Of",FM,FSM,Pohnpei
1798251391,Funafuti,-8.5167,179.2167,Tuvalu,TV,TUV,Funafuti
1748963140,Lobamba,-26.4167,31.1667,Swaziland,SZ,SWZ,Hhohho
1308891766,Saint George’s,12.0444,-61.7417,Grenada,GD,GRD,Saint George
1674741947,San Marino,43.932,12.4484,San Marino,SM,SMR,San Marino Città
1934000006,Al Quds,31.7764,35.2269,West Bank,XW,XWB,
1580556972,Capitol Hill,15.2137,145.7546,Northern Mariana Islands,MP,MNP,
1316937540,Hagåtña,13.4745,144.7504,Guam,GU,GUM,
1585525081,Ngerulmud,7.5006,134.6242,Palau,PW,PLW,Melekeok
1356698199,Bareilly,28.364,79.415,India,IN,IND,Uttar Pradesh
1704966442,Quảng Hà,16.06,108.25,Vietnam,VN,VNM,Quảng Nam
1392129541,Kitaku,33.8704,130.82,Japan,JP,JPN,Fukuoka
1356727084,Jodhpur,26.2918,73.0168,India,IN,IND,Rājasthān
1156913008,Xingcheng,24.1681,115.6669,China,CN,CHN,Guangdong
1156536785,Dongtai,32.8534,120.3037,China,CN,CHN,Jiangsu
1076050637,Joinvile,-26.32,-48.8399,Brazil,BR,BRA,Santa Catarina
1156012356,Yingcheng,24.1876,113.4042,China,CN,CHN,Guangdong
1804152933,Dnipro,48.45,34.9833,Ukraine,UA,UKR,Dnipropetrovs’ka Oblast’
1826836462,Glasgow,55.8609,-4.2514,United Kingdom,GB,GBR,Glasgow City
1392107144,Chiba,35.6,140.1,Japan,JP,JPN,Chiba
1156578273,Danyang,31.9948,119.575,China,CN,CHN,Jiangsu
1076336975,Natal,-6.9838,-60.2699,Brazil,BR,BRA,Amazonas
1380646673,Naples,40.8333,14.25,Italy,IT,ITA,Campania
1156601489,Zhaodong,46.0635,125.9773,China,CN,CHN,Heilongjiang
1156960560,Xibeijie,39.737,98.5049,China,CN,CHN,Gansu
1368344172,Kirkuk,35.4667,44.4,Iraq,IQ,IRQ,Kirkūk
1156485081,Huilong,31.8131,121.6574,China,CN,CHN,Jiangsu
1410160862,Tongjin,37.2361,127.2011,"Korea, South",KR,KOR,Gyeonggi
1840020428,Oklahoma City,35.4676,-97.5136,United States,US,USA,Oklahoma
1250258110,Toulouse,43.6045,1.444,France,FR,FRA,Occitanie
1792161179,Denizli,37.7731,29.0878,Turkey,TR,TUR,Denizli
1356960169,Dispur,26.15,91.77,India,IN,IND,Assam
1356999503,Coimbatore,11,76.9667,India,IN,IND,Tamil Nādu
1156138895,Luocheng,22.7645,111.5745,China,CN,CHN,Guangdong
1356593800,Guwāhāti,26.1667,91.7667,India,IN,IND,Assam
1156202451,Shima,24.4475,117.8118,China,CN,CHN,Fujian
1410622472,Sŏngnam,37.4386,127.1378,"Korea, South",KR,KOR,Gyeonggi
1356314385,Solāpur,17.6833,75.9167,India,IN,IND,Mahārāshtra
1504861504,Tangier,35.7847,-5.8125,Morocco,MA,MAR,Tanger-Tétouan-Al Hoceïma
1156592047,Anqiu,36.3619,119.1072,China,CN,CHN,Shandong
1156303834,Feicheng,36.186,116.772,China,CN,CHN,Shandong
1156105450,Taishan,22.2486,112.785,China,CN,CHN,Guangdong
1156023073,Meishan,34.1736,112.839,China,CN,CHN,Henan
1180478201,Kisangani,0.5153,25.1911,Congo (Kinshasa),CD,COD,Tshopo
1729318628,Khartoum North,15.6333,32.6333,Sudan,SD,SDN,Khartoum
1484666646,Aguascalientes,21.876,-102.296,Mexico,MX,MEX,Aguascalientes
1504172585,Marrakech,31.6295,-7.9811,Morocco,MA,MAR,Marrakech-Safi
1156911678,Nada,19.5,109.5833,China,CN,CHN,Hainan
1804963805,Donetsk,48.0089,37.8042,Ukraine,UA,UKR,Donets’ka Oblast’
1156875484,Taihecun,45.768,131.0063,China,CN,CHN,Heilongjiang
1156198103,Wuchuan,21.4571,110.7659,China,CN,CHN,Guangdong
1604613706,Trujillo,-8.1119,-79.0289,Peru,PE,PER,La Libertad
1608136151,Cebu City,10.3,123.9,Philippines,PH,PHL,Cebu
1156281983,Taihe,30.8706,105.3784,China,CN,CHN,Sichuan
1076784718,Olinda,-8,-34.85,Brazil,BR,BRA,Pernambuco
1840004836,Bridgeport,41.1918,-73.1953,United States,US,USA,Connecticut
1356884472,Trichinopoly,10.8269,78.6928,India,IN,IND,Tamil Nādu
1156236053,Xin’an,34.3662,118.3369,China,CN,CHN,Jiangsu
1360900986,Padang,-0.9556,100.3606,Indonesia,ID,IDN,Sumatera Barat
1156874864,Qingzhou,36.6967,118.4797,China,CN,CHN,Shandong
1840000386,Buffalo,42.9016,-78.8487,United States,US,USA,New York
1156936644,Xinyi,22.3559,110.9369,China,CN,CHN,Guangdong
1156302762,Lichuan,30.2965,108.9378,China,CN,CHN,Hubei
1156255811,Daye,30.1003,114.9699,China,CN,CHN,Hubei
1840020696,Fort Worth,32.7811,-97.3473,United States,US,USA,Texas
1156410076,Zhuanghe,39.6896,122.9664,China,CN,CHN,Liaoning
1840004773,Hartford,41.7661,-72.6834,United States,US,USA,Connecticut
1682452296,Ad Dammām,26.4333,50.1,Saudi Arabia,SA,SAU,Ash Sharqīyah
1410428222,Bucheon,37.4989,126.7831,"Korea, South",KR,KOR,Gyeonggi
1156369972,Lhasa,29.65,91.1,China,CN,CHN,Tibet
1760013934,Homs,34.7333,36.7167,Syria,SY,SYR,Ḩimş
1156752602,Jiaozhou,36.2481,119.9625,China,CN,CHN,Shandong
1484396779,Mérida,20.97,-89.62,Mexico,MX,MEX,Yucatán
1156202014,Dengtalu,36.08,114.35,China,CN,CHN,Henan
1566287704,Zaria,11.0667,7.7,Nigeria,NG,NGA,Kaduna
1356102365,Hubli,15.36,75.125,India,IN,IND,Karnātaka
1566979497,Abeokuta,7.15,3.35,Nigeria,NG,NGA,Ogun
1840022101,Tucson,32.1545,-110.8782,United States,US,USA,Arizona
1643438227,Krasnodar,45.0333,38.9833,Russia,RU,RUS,Krasnodarskiy Kray
1076697777,Natal,-5.795,-35.2089,Brazil,BR,BRA,Rio Grande do Norte
1076221386,Novo Hamburgo,-29.7096,-51.14,Brazil,BR,BRA,Rio Grande do Sul
1484335603,Chihuahua,28.6353,-106.0889,Mexico,MX,MEX,Chihuahua
1458509635,Klang,3.0333,101.45,Malaysia,MY,MYS,Selangor
1380244627,Turin,45.0667,7.7,Italy,IT,ITA,Piedmont
1566773679,Jos,9.9333,8.8833,Nigeria,NG,NGA,Plateau
1156207330,Laiyang,36.9758,120.7136,China,CN,CHN,Shandong
1356494816,Jalandhar,31.3256,75.5792,India,IN,IND,Punjab
1076660445,Campo Grande,-20.4686,-54.6222,Brazil,BR,BRA,Mato Grosso do Sul
1504989034,Sale,34.05,-6.8167,Morocco,MA,MAR,Rabat-Salé-Kénitra
1862647790,Barinas,8.6333,-70.2167,Venezuela,VE,VEN,Barinas
1250774071,Marseille,43.2964,5.37,France,FR,FRA,Provence-Alpes-Côte d’Azur
1156686574,Kaifeng Chengguanzhen,34.85,114.35,China,CN,CHN,Henan
1792933981,Eskişehir,39.7767,30.5206,Turkey,TR,TUR,Eskişehir
1156673331,Gaomi,36.3833,119.75,China,CN,CHN,Shandong
1458423505,Ipoh,4.6,101.07,Malaysia,MY,MYS,Perak
1156332302,Hai’an,32.532,120.4604,China,CN,CHN,Jiangsu
1826558678,Liverpool,53.4,-2.9833,United Kingdom,GB,GBR,Liverpool
1608189351,Zamboanga City,6.9167,122.0833,Philippines,PH,PHL,Zamboanga
1012126319,Oran,35.6969,-0.6331,Algeria,DZ,DZA,Oran
1826602892,Southampton,50.9,-1.4,United Kingdom,GB,GBR,Southampton
1156194600,Weichanglu,37.1792,119.9333,China,CN,CHN,Shandong
1360422679,Pekanbaru,0.5333,101.45,Indonesia,ID,IDN,Riau
1826964096,Portsmouth,50.8058,-1.0872,United Kingdom,GB,GBR,Portsmouth
1156705082,Leping,28.9632,117.1203,China,CN,CHN,Jiangxi
1368578192,Erbil,36.1911,44.0094,Iraq,IQ,IRQ,Arbīl
1364535690,Kermānshāh,34.3167,47.0686,Iran,IR,IRN,Kermānshāh
1156804488,Hailun,47.4585,126.9632,China,CN,CHN,Heilongjiang
1156787307,Yangchun,22.1667,111.7833,China,CN,CHN,Guangdong
1156949639,Macheng,31.1817,115.0189,China,CN,CHN,Hubei
1566480168,Ilorin,8.5,4.55,Nigeria,NG,NGA,Kwara
1076727667,Teresina,-5.0949,-42.8042,Brazil,BR,BRA,Piauí
1840009315,Omaha,41.2627,-96.0522,United States,US,USA,Nebraska
1156177817,Yuci,37.6804,112.73,China,CN,CHN,Shanxi
1643556540,Saratov,51.5333,46,Russia,RU,RUS,Saratovskaya Oblast’
1076339714,Iguaçu,-22.74,-43.47,Brazil,BR,BRA,Rio de Janeiro
1840023252,El Paso,31.8479,-106.4309,United States,US,USA,Texas
1360848527,Denpasar,-8.6667,115.2167,Indonesia,ID,IDN,Bali
1156898134,Dehui,44.5323,125.6965,China,CN,CHN,Jilin
1484850125,Naucalpan de Juárez,19.4753,-99.2378,Mexico,MX,MEX,México
1356140143,Bhubaneshwar,20.2644,85.8281,India,IN,IND,Odisha
1156849608,Tongchuan,34.9057,108.9422,China,CN,CHN,Shaanxi
1410964361,Cheongju,36.6372,127.4897,"Korea, South",KR,KOR,Chungbuk
1566325734,Warri,5.5167,5.75,Nigeria,NG,NGA,Delta
1178411563,Pointe-Noire,-4.7889,11.8653,Congo (Brazzaville),CG,COG,Pointe-Noire
1156795164,Rongjiawan,29.3801,113.1,China,CN,CHN,Hunan
1484583620,San Luis Potosí,22.1511,-100.9761,Mexico,MX,MEX,San Luis Potosí
1458469233,Butterworth,5.3942,100.3664,Malaysia,MY,MYS,Pulau Pinang
1356019118,Bhayandar,19.3,72.85,India,IN,IND,Mahārāshtra
1156943939,Renqiu,38.7094,116.1008,China,CN,CHN,Hebei
1484124846,Toluca,19.2925,-99.6569,Mexico,MX,MEX,México
1840013305,Honolulu,21.3294,-157.846,United States,US,USA,Hawaii
1484604775,Querétaro,20.5875,-100.3928,Mexico,MX,MEX,Querétaro
1156263165,Xindi,29.8182,113.4653,China,CN,CHN,Hubei
1156729960,Wu’an,36.6941,114.1847,China,CN,CHN,Hebei
1076793227,São Bernardo do Campo,-23.6939,-46.565,Brazil,BR,BRA,São Paulo
1484015319,Hermosillo,29.0989,-110.9542,Mexico,MX,MEX,Sonora
1156182309,Wutong,30.6326,120.5474,China,CN,CHN,Zhejiang
1608766695,Taguig City,14.5167,121.05,Philippines,PH,PHL,Taguig
1484107245,Saltillo,25.4333,-101,Mexico,MX,MEX,Coahuila de Zaragoza
1156235854,Gaoyou,32.7847,119.4432,China,CN,CHN,Jiangsu
1156405731,Hejian,38.4451,116.0897,China,CN,CHN,Hebei
1156142520,Yiyang,26.4103,112.3913,China,CN,CHN,Hunan
1156046618,Puxi,35.2125,114.735,China,CN,CHN,Henan
1156086381,Zijinglu,34.7513,112.9854,China,CN,CHN,Henan
1156080077,Xiashi,30.5333,120.6833,China,CN,CHN,Zhejiang
1792019202,Trabzon,41.005,39.7225,Turkey,TR,TUR,Trabzon
1076922014,João Pessoa,-7.0833,-34.8333,Brazil,BR,BRA,Paraíba
1156259752,Dongyang,29.2785,120.2282,China,CN,CHN,Zhejiang
1840021024,McAllen,26.2273,-98.2471,United States,US,USA,Texas
1724981666,Valencia,39.4667,-0.375,Spain,ES,ESP,Valencia
1156033855,Qingping,34.538,113.3796,China,CN,CHN,Henan
1392913753,Niigata,37.9161,139.0364,Japan,JP,JPN,Niigata
1392174500,Hamamatsu,34.7167,137.7333,Japan,JP,JPN,Shizuoka
1484669072,Morelia,19.7683,-101.1894,Mexico,MX,MEX,Michoacán de Ocampo
1608278212,Pasig City,14.575,121.0833,Philippines,PH,PHL,Pasig
1356269375,Morādābād,28.8418,78.7568,India,IN,IND,Uttar Pradesh
1484516810,Culiacán,24.8069,-107.3939,Mexico,MX,MEX,Sinaloa
1156524101,Xiangxiang,27.7389,112.5223,China,CN,CHN,Hunan
1360141408,Malang,-7.98,112.62,Indonesia,ID,IDN,Jawa Timur
1156255316,Xingyi,25.091,104.9011,China,CN,CHN,Guizhou
1156671495,Chaohucun,31.6783,117.7353,China,CN,CHN,Anhui
1156340393,Fuyang,30.0533,119.9519,China,CN,CHN,Zhejiang
1608824345,Antipolo,14.5842,121.1763,Philippines,PH,PHL,Rizal
1826122597,Nottingham,52.95,-1.15,United Kingdom,GB,GBR,Nottingham
1156000460,Cencheng,22.9297,111.0186,China,CN,CHN,Guangxi
1616172264,Kraków,50.0614,19.9372,Poland,PL,POL,Małopolskie
1840005293,Hempstead,40.6629,-73.6089,United States,US,USA,New York
1792511957,Erzurum,39.9097,41.2756,Turkey,TR,TUR,Erzurum
1784674685,Al ‘Ayn,24.2075,55.7447,United Arab Emirates,AE,ARE,Abū Z̧aby
1156837705,Songzi,30.1772,111.7732,China,CN,CHN,Hubei
1156973102,Laixi,36.8667,120.5333,China,CN,CHN,Shandong
1156515985,Zhongba,31.7761,104.7406,China,CN,CHN,Sichuan
1156689964,Qingnian,36.8494,115.7061,China,CN,CHN,Shandong
1840019176,Albuquerque,35.1053,-106.6464,United States,US,USA,New Mexico
1566368729,Kaduna,10.5231,7.4403,Nigeria,NG,NGA,Kaduna
1484861603,Tlalnepantla,19.5367,-99.1947,Mexico,MX,MEX,México
1156544851,Xinhualu,34.3962,113.7249,China,CN,CHN,Henan
1156267419,Guangshui,31.6189,113.8229,China,CN,CHN,Hubei
1276054552,Frankfurt,50.1136,8.6797,Germany,DE,DEU,Hesse
1360684979,Samarinda,-0.5022,117.1536,Indonesia,ID,IDN,Kalimantan Timur
1158439005,Changhua,24.0667,120.5333,Taiwan,TW,TWN,Changhua
1710690280,Pietermaritzburg,-29.5833,30.4167,South Africa,ZA,ZAF,KwaZulu-Natal
1408328889,Hŭngnam,39.8231,127.6232,"Korea, North",KP,PRK,Hamnam
1356110593,Kolhāpur,16.7,74.2333,India,IN,IND,Mahārāshtra
1862889027,Ciudad Guayana,8.3596,-62.6517,Venezuela,VE,VEN,Bolívar
1170743755,Cúcuta,7.9075,-72.5047,Colombia,CO,COL,Norte de Santander
1156933354,Licheng,31.4174,119.4786,China,CN,CHN,Jiangsu
1356024354,Thiruvananthapuram,8.5,76.8997,India,IN,IND,Kerala
1643040435,Tyumen,57.15,65.5333,Russia,RU,RUS,Tyumenskaya Oblast’
1862252264,San Cristóbal,7.7682,-72.2322,Venezuela,VE,VEN,Táchira
1804644752,Zaporizhzhia,47.8378,35.1383,Ukraine,UA,UKR,Zaporiz’ka Oblast’
1484010310,Cancún,21.1606,-86.8475,Mexico,MX,MEX,Quintana Roo
1392106283,Kumamoto,32.8031,130.7078,Japan,JP,JPN,Kumamoto
1156866870,Chengguan,35.4599,113.7975,China,CN,CHN,Henan
1156609562,Nehe,48.48,124.8738,China,CN,CHN,Heilongjiang
1566574518,Sokoto,13.0622,5.2339,Nigeria,NG,NGA,Sokoto
1840006507,Birmingham,33.5277,-86.7987,United States,US,USA,Alabama
1156756935,Zunhua,40.1881,117.9593,China,CN,CHN,Hebei
1364158221,Orūmīyeh,37.55,45.1,Iran,IR,IRN,Āz̄arbāyjān-e Gharbī
1566930579,Oyo,7.8333,3.9333,Nigeria,NG,NGA,Oyo
1156089788,Wugang,26.7345,110.6293,China,CN,CHN,Hunan
1156968311,Shuangqiao,35.0833,112.5833,China,CN,CHN,Henan
1250363682,Rennes,48.1147,-1.6794,France,FR,FRA,Bretagne
1156450911,Sizhan,39.0099,106.3694,China,CN,CHN,Ningxia
1156930148,Langzhong,31.5833,105.972,China,CN,CHN,Sichuan
1826921049,Bristol,51.45,-2.5833,United Kingdom,GB,GBR,"Bristol, City of"
1156315498,Qian’an,40.0059,118.6973,China,CN,CHN,Hebei
1804939658,Lviv,49.8419,24.0315,Ukraine,UA,UKR,L’vivs’ka Oblast’
1156817518,Zouping,36.8625,117.7424,China,CN,CHN,Shandong
1276376509,Bremen,53.1153,8.7975,Germany,DE,DEU,Bremen
1484737671,Reynosa,26.0922,-98.2778,Mexico,MX,MEX,Tamaulipas
1368003357,An Najaf,32.029,44.3396,Iraq,IQ,IRQ,An Najaf
1392967248,Sagamihara,35.5667,139.3667,Japan,JP,JPN,Kanagawa
1156383681,Guli,28.9008,120.0284,China,CN,CHN,Zhejiang
1840015988,Sarasota,27.3386,-82.5431,United States,US,USA,Florida
1392954750,Okayama,34.65,133.9167,Japan,JP,JPN,Okayama
1124112672,Mississauga,43.6,-79.65,Canada,CA,CAN,Ontario
1156837145,Lingbao Chengguanzhen,34.5221,110.8786,China,CN,CHN,Henan
1156406202,Anlu,31.2575,113.6783,China,CN,CHN,Hubei
1156264408,Wusong,30.9333,117.7667,China,CN,CHN,Anhui
1840034249,Dayton,39.7797,-84.1998,United States,US,USA,Ohio
1566212729,Enugu,6.4403,7.4942,Nigeria,NG,NGA,Enugu
1458236750,George Town,5.4145,100.3292,Malaysia,MY,MYS,Pulau Pinang
1076000699,Jaboatão,-8.1803,-35.0014,Brazil,BR,BRA,Pernambuco
1076625886,Santo André,-23.6572,-46.5333,Brazil,BR,BRA,São Paulo
1156116456,Xichang,27.8983,102.2706,China,CN,CHN,Sichuan
1170765625,Soledad,10.92,-74.77,Colombia,CO,COL,Atlántico
1156254788,Chengxiang,31.4515,121.1043,China,CN,CHN,Jiangsu
1643256295,Tolyatti,53.5167,49.4167,Russia,RU,RUS,Samarskaya Oblast’
1356139858,Sahāranpur,29.964,77.546,India,IN,IND,Uttar Pradesh
1356851618,Warangal,17.9756,79.6011,India,IN,IND,Telangana
1076786452,Osasco,-23.5328,-46.7919,Brazil,BR,BRA,São Paulo
1156141962,Dashiqiao,40.6328,122.5021,China,CN,CHN,Liaoning
1760555544,Latakia,35.5236,35.7917,Syria,SY,SYR,Al Lādhiqīyah
1840000373,Rochester,43.168,-77.6162,United States,US,USA,New York
1840020319,Fresno,36.7831,-119.7941,United States,US,USA,California
1360685223,Banjarmasin,-3.3333,114.5833,Indonesia,ID,IDN,Kalimantan Selatan
1356567087,Salem,11.65,78.1667,India,IN,IND,Tamil Nādu
1156011120,Changsha,22.3762,112.6877,China,CN,CHN,Guangdong
1250071647,Grenoble,45.1715,5.7224,France,FR,FRA,Auvergne-Rhône-Alpes
1156077046,Shishi,24.7355,118.6434,China,CN,CHN,Fujian
1484002410,Guadalupe,25.6775,-100.2597,Mexico,MX,MEX,Nuevo León
1076527830,Aracaju,-10.9111,-37.0717,Brazil,BR,BRA,Sergipe
1566483284,Bauchi,10.3158,9.8442,Nigeria,NG,NGA,Bauchi
1124567288,Hamilton,43.2567,-79.8692,Canada,CA,CAN,Ontario
1616832750,Łódź,51.7769,19.4547,Poland,PL,POL,Łódzkie
1156690651,Miluo Chengguanzhen,28.8049,113.0745,China,CN,CHN,Hunan
1156145272,Gaizhou,40.4019,122.3499,China,CN,CHN,Liaoning
1392235505,Shizuoka,34.9756,138.3825,Japan,JP,JPN,Shizuoka
1356113556,Mālegaon,20.55,74.55,India,IN,IND,Mahārāshtra
1368597794,Karbalā’,32.6167,44.0333,Iraq,IQ,IRQ,Karbalā’
1156044041,Leling,37.7333,117.2167,China,CN,CHN,Shandong
1076783887,São José dos Campos,-23.1789,-45.8869,Brazil,BR,BRA,São Paulo
1156444449,Jianshe,34.2189,113.7693,China,CN,CHN,Henan
1484463183,Acapulco de Juárez,16.8636,-99.8825,Mexico,MX,MEX,Guerrero
1826289852,Sheffield,53.3833,-1.4667,United Kingdom,GB,GBR,Sheffield
1156033208,Jingcheng,32.0058,120.2547,China,CN,CHN,Jiangsu
1608379532,City of Parañaque,14.4667,121.0167,Philippines,PH,PHL,Parañaque
1356707865,Kochi,9.9667,76.2833,India,IN,IND,Kerala
1840001044,Allentown,40.5961,-75.4756,United States,US,USA,Pennsylvania
1586038700,Bahawalpur,29.3956,71.6722,Pakistan,PK,PAK,Punjab
1360027771,Tasikmalaya,-7.3333,108.2,Indonesia,ID,IDN,Jawa Barat
1446227359,Macau,22.203,113.545,Macau,MO,MAC,
1484215762,Torreón,25.5394,-103.4486,Mexico,MX,MEX,Coahuila de Zaragoza
1156368551,Xinmin,41.9952,122.8224,China,CN,CHN,Liaoning
1156029691,Shanhu,29.5908,120.8176,China,CN,CHN,Zhejiang
1156658422,Zhongshu,27.8116,106.4133,China,CN,CHN,Guizhou
1156107208,Xigazê,29.2649,88.8799,China,CN,CHN,Tibet
1036153217,Gold Coast,-28.0167,153.4,Australia,AU,AUS,Queensland
1380428434,Palermo,38.1157,13.3613,Italy,IT,ITA,Sicilia
1608831546,Cagayan de Oro,8.4833,124.65,Philippines,PH,PHL,Cagayan de Oro
1356190221,Gorakhpur,26.7611,83.3667,India,IN,IND,Uttar Pradesh
1156720536,Pinghu,30.7005,121.0104,China,CN,CHN,Zhejiang
1156503907,Guankou,30.9933,103.624,China,CN,CHN,Sichuan
1840021672,Tulsa,36.1284,-95.9042,United States,US,USA,Oklahoma
1156009046,Yatou,37.1653,122.4867,China,CN,CHN,Shandong
1156143149,Songyang,34.4161,113.0424,China,CN,CHN,Henan
1840015130,Cape Coral,26.6446,-81.9956,United States,US,USA,Florida
1408498177,Ch’ŏngjin,41.8,129.7831,"Korea, North",KP,PRK,Hambuk
1076174955,São José dos Pinhais,-25.57,-49.18,Brazil,BR,BRA,Paraná
1156103317,Puyang Chengguanzhen,35.7004,114.98,China,CN,CHN,Henan
1156678111,Qionghu,28.8417,112.3595,China,CN,CHN,Hunan
1156660138,Yanshi Chengguanzhen,34.723,112.7796,China,CN,CHN,Henan
1076524478,Ribeirão Prêto,-21.1783,-47.8067,Brazil,BR,BRA,São Paulo
1608418544,Dasmariñas,14.3294,120.9367,Philippines,PH,PHL,Cavite
1024079828,Huambo,-12.7667,15.7333,Angola,AO,AGO,Huambo
1156574542,Wenchang,31.054,116.9507,China,CN,CHN,Anhui
1156989733,Shulan,44.4167,126.95,China,CN,CHN,Jilin
1862657837,Catia La Mar,10.6,-67.0333,Venezuela,VE,VEN,Vargas
1384983838,Bouaké,7.6833,-5.0331,Côte D’Ivoire,CI,CIV,Vallée du Bandama
1368735317,As Sulaymānīyah,35.55,45.4333,Iraq,IQ,IRQ,As Sulaymānīyah
1410037247,Hwasu-dong,37.2,126.7667,"Korea, South",KR,KOR,Gyeonggi
1410494847,Jeonju,35.8219,127.1489,"Korea, South",KR,KOR,Jeonbuk
1484854616,Durango,24.0167,-104.6667,Mexico,MX,MEX,Durango
1356016156,Shimoga,13.9304,75.56,India,IN,IND,Karnātaka
1410585171,Ansan,37.3236,126.8219,"Korea, South",KR,KOR,Gyeonggi
1716032632,Bulawayo,-20.1667,28.5667,Zimbabwe,ZW,ZWE,Bulawayo
1156207794,Xiping,25.6005,103.8166,China,CN,CHN,Yunnan
1156476348,Sanhe,39.9808,117.0701,China,CN,CHN,Hebei
1356374905,Guntūr,16.3,80.45,India,IN,IND,Andhra Pradesh
1156840276,Dali,25.7003,100.1564,China,CN,CHN,Yunnan
1840018905,Concord,37.9722,-122.0016,United States,US,USA,California
1356539761,Tiruppūr,11.1075,77.3398,India,IN,IND,Tamil Nādu
1410020455,Ch’ŏnan,36.8064,127.1522,"Korea, South",KR,KOR,Chungnam
1724907391,Zaragoza,41.6483,-0.883,Spain,ES,ESP,Aragon
1643983138,Izhevsk,56.85,53.2167,Russia,RU,RUS,Udmurtiya
1156259342,Guixi,28.2861,117.2083,China,CN,CHN,Jiangxi
1392505502,Honchō,35.6947,139.9825,Japan,JP,JPN,Chiba
1076758708,Sorocaba,-23.5019,-47.4578,Brazil,BR,BRA,São Paulo
1484460894,Villahermosa,17.9892,-92.9281,Mexico,MX,MEX,Tabasco
1458989343,Petaling Jaya,3.1073,101.6067,Malaysia,MY,MYS,Selangor
1156027100,Wuxue,29.8518,115.5539,China,CN,CHN,Hubei
1528871692,Utrecht,52.1003,5.12,Netherlands,NL,NLD,Utrecht
1180518247,Kikwit,-5.0333,18.8167,Congo (Kinshasa),CD,COD,Kwilu
1840018825,Colorado Springs,38.8674,-104.7606,United States,US,USA,Colorado
1608492120,Valenzuela,14.7,120.9833,Philippines,PH,PHL,Valenzuela
1156487293,Gaobeidian,39.3257,115.8678,China,CN,CHN,Hebei
1156490037,Qufu,35.6,116.9833,China,CN,CHN,Shandong
1156104573,Ruiming,25.8833,116.0333,China,CN,CHN,Jiangxi
1616108520,Wrocław,51.1077,17.0353,Poland,PL,POL,Dolnośląskie
1364630382,Rasht,37.2833,49.6,Iran,IR,IRN,Gīlān
1250091495,Nantes,47.2181,-1.5528,France,FR,FRA,Pays de la Loire
1276171358,Stuttgart,48.7761,9.1775,Germany,DE,DEU,Baden-Württemberg
1682958157,Al Hufūf,25.3608,49.5997,Saudi Arabia,SA,SAU,Ash Sharqīyah
1156422214,Xinshi,31.0236,113.1079,China,CN,CHN,Hubei
1068793894,Cochabamba,-17.3935,-66.157,Bolivia,BO,BOL,Cochabamba
1643318931,Barnaul,53.3567,83.7872,Russia,RU,RUS,Altayskiy Kray
1422886065,Tripoli,34.4333,35.8333,Lebanon,LB,LBN,Liban-Nord
1156661253,Jin’e,29.3395,105.2868,China,CN,CHN,Sichuan
1434915572,Benghazi,32.1167,20.0667,Libya,LY,LBY,Banghāzī
1804544901,Kryvyy Rih,47.9086,33.3433,Ukraine,UA,UKR,Dnipropetrovs’ka Oblast’
1410188674,Yanggok,37.6367,127.2142,"Korea, South",KR,KOR,Gyeonggi
1156166828,Changping,40.2248,116.1944,China,CN,CHN,Beijing
1356096816,Raurkela,22.2492,84.8828,India,IN,IND,Odisha
1818000039,Ḩalwān,29.8419,31.3342,Egypt,EG,EGY,Al Qāhirah
1840015163,Charleston,32.8153,-79.9628,United States,US,USA,South Carolina
1484504936,Chimalhuacán,19.4167,-98.9,Mexico,MX,MEX,México
1156258586,Xinxing,39.8734,124.1453,China,CN,CHN,Liaoning
1156236948,Suohe,34.7879,113.392,China,CN,CHN,Henan
1356972351,Mangalore,12.8703,74.8806,India,IN,IND,Karnātaka
1156263400,Zhuangyuan,37.3,120.8333,China,CN,CHN,Shandong
1643668944,Ulyanovsk,54.3167,48.3667,Russia,RU,RUS,Ul’yanovskaya Oblast’
1643439037,Irkutsk,52.2833,104.3,Russia,RU,RUS,Irkutskaya Oblast’
1356722310,Nānded,19.15,77.3333,India,IN,IND,Mahārāshtra
1608869358,Bacoor,14.4624,120.9645,Philippines,PH,PHL,Cavite
1360992394,Pontianak,-0.0206,109.3414,Indonesia,ID,IDN,Kalimantan Barat
1156127276,Bazhou,39.1235,116.386,China,CN,CHN,Hebei
1840000466,Springfield,42.1155,-72.5395,United States,US,USA,Massachusetts
1156573684,Turpan,42.95,89.1822,China,CN,CHN,Xinjiang
1276615258,Düsseldorf,51.2311,6.7724,Germany,DE,DEU,North Rhine-Westphalia
1156294952,Xingtai,37.0659,114.4753,China,CN,CHN,Hebei
1156474288,Meihekou,42.5279,125.678,China,CN,CHN,Jilin
1156897463,Jurong,31.9579,119.1595,China,CN,CHN,Jiangsu
1156077330,Zhugang,28.1277,121.2288,China,CN,CHN,Zhejiang
1643175363,Khabarovsk,48.4833,135.0667,Russia,RU,RUS,Khabarovskiy Kray
1156456552,Xinji,37.9423,115.2118,China,CN,CHN,Hebei
1408482040,Hamhŭng,39.9167,127.5333,"Korea, North",KP,PRK,Hamnam
1360329102,Serang,-6.12,106.1503,Indonesia,ID,IDN,Banten
1682470726,Buraydah,26.3333,43.9667,Saudi Arabia,SA,SAU,Al Qaşīm
1887324526,Ta‘izz,13.5789,44.0219,Yemen,YE,YEM,Ta‘izz
1250819356,Montpellier,43.6119,3.8772,France,FR,FRA,Occitanie
1032233996,San Miguel de Tucumán,-26.8167,-65.2167,Argentina,AR,ARG,Tucumán
1643338528,Yaroslavl,57.6167,39.85,Russia,RU,RUS,Yaroslavskaya Oblast’
1156996913,Zhangshu,28.0667,115.5375,China,CN,CHN,Jiangxi
1840002928,Grand Rapids,42.962,-85.6562,United States,US,USA,Michigan
1643832017,Vladivostok,43.1167,131.9,Russia,RU,RUS,Primorskiy Kray
1458763489,Kuantan,3.8167,103.3333,Malaysia,MY,MYS,Pahang
1356872061,Cuttack,20.45,85.8667,India,IN,IND,Odisha
1360645580,Jambi,-1.59,103.61,Indonesia,ID,IDN,Jambi
1156045160,Zhuozhou,39.4887,115.9918,China,CN,CHN,Hebei
1076495001,Uberlândia,-18.9189,-48.2769,Brazil,BR,BRA,Minas Gerais
1752059374,Gothenburg,57.6717,11.981,Sweden,SE,SWE,Västra Götaland
1156770851,Tianchang,32.6853,119.0041,China,CN,CHN,Anhui
1076009922,Canoas,-29.92,-51.18,Brazil,BR,BRA,Rio Grande do Sul
1586696588,Sargodha,32.0836,72.6711,Pakistan,PK,PAK,Punjab
1608544537,Las Piñas City,14.45,120.9833,Philippines,PH,PHL,Las Piñas
1360181436,Cimahi,-6.8833,107.5333,Indonesia,ID,IDN,Jawa Barat
1392975133,Kawaguchi,35.8078,139.7242,Japan,JP,JPN,Saitama
1484832519,Tuxtla,16.7528,-93.1167,Mexico,MX,MEX,Chiapas
1360500922,Balikpapan,-1.1489,116.9031,Indonesia,ID,IDN,Kalimantan Timur
1156277802,Qamdo,31.1375,97.1777,China,CN,CHN,Tibet
1710149138,Durban,-29.8583,31.025,South Africa,ZA,ZAF,KwaZulu-Natal
1392120675,Kagoshima,31.58,130.5281,Japan,JP,JPN,Kagoshima
1608171585,General Santos,6.1167,125.1667,Philippines,PH,PHL,General Santos
1356592607,Chānda,19.95,79.3,India,IN,IND,Mahārāshtra
1682494753,Al Ḩillah,23.4895,46.7564,Saudi Arabia,SA,SAU,Ar Riyāḑ
1643580480,Makhachkala,42.9833,47.4833,Russia,RU,RUS,Dagestan
1032456103,Mar del Plata,-38,-57.55,Argentina,AR,ARG,Buenos Aires
1124625989,Brampton,43.6833,-79.7667,Canada,CA,CAN,Ontario
1156180482,Luocheng,30.9793,104.28,China,CN,CHN,Sichuan
1840020580,Mission Viejo,33.6095,-117.655,United States,US,USA,California
1276562886,Dortmund,51.5139,7.4653,Germany,DE,DEU,North Rhine-Westphalia
1156225985,Chuxiong,25.0461,101.5436,China,CN,CHN,Yunnan
1608725647,Makati City,14.55,121.0333,Philippines,PH,PHL,Makati
1840000417,Albany,42.6664,-73.7987,United States,US,USA,New York
1458194263,Shah Alam,3.0833,101.5333,Malaysia,MY,MYS,Selangor
1840014486,Knoxville,35.9692,-83.9496,United States,US,USA,Tennessee
1276769247,Essen,51.4508,7.0131,Germany,DE,DEU,North Rhine-Westphalia
1076112309,Cuiabá,-15.5958,-56.0969,Brazil,BR,BRA,Mato Grosso
1156107332,Shangzhi,45.2116,127.962,China,CN,CHN,Heilongjiang
1156018338,Botou,38.06,116.56,China,CN,CHN,Hebei
1170940590,Bucaramanga,7.1186,-73.1161,Colombia,CO,COL,Santander
1410581095,Anyang,37.3925,126.9269,"Korea, South",KR,KOR,Gyeonggi
1380716540,Genoa,44.4072,8.934,Italy,IT,ITA,Liguria
1156174997,Kuiju,36.8528,119.3904,China,CN,CHN,Shandong
1484087945,Tlaquepaque,20.6167,-103.3167,Mexico,MX,MEX,Jalisco
1392172935,Hachiōji,35.6667,139.3167,Japan,JP,JPN,Tōkyō
1356970407,Dehra Dūn,30.318,78.029,India,IN,IND,Uttarakhand
1682956102,Aţ Ţā’if,21.2667,40.4167,Saudi Arabia,SA,SAU,Makkah al Mukarramah
1608850554,San Jose del Monte,14.8139,121.0453,Philippines,PH,PHL,Bulacan
1840019148,Bakersfield,35.3529,-119.0359,United States,US,USA,California
1840020135,Ogden,41.2278,-111.9682,United States,US,USA,Utah
1156284109,Xiulin,29.7211,112.4037,China,CN,CHN,Hubei
1156244234,Fu’an,27.1,119.6333,China,CN,CHN,Fujian
1724397372,Málaga,36.7167,-4.4167,Spain,ES,ESP,Andalusia
1643258928,Tomsk,56.4886,84.9522,Russia,RU,RUS,Tomskaya Oblast’
1364554896,Kermān,30.2833,57.0667,Iran,IR,IRN,Kermān
1826028894,Kingston upon Hull,53.7444,-0.3325,United Kingdom,GB,GBR,"Kingston upon Hull, City of"
1818406471,Al Maḩallah al Kubrá,30.9667,31.1667,Egypt,EG,EGY,Al Gharbīyah
1156158643,Luofeng,37.359,120.396,China,CN,CHN,Shandong
1156184681,Lingyuan,41.2407,119.3957,China,CN,CHN,Liaoning
1840013941,Baton Rouge,30.4418,-91.131,United States,US,USA,Louisiana
1170386718,Pereira,4.8104,-75.68,Colombia,CO,COL,Risaralda
1862318264,Ciudad Bolívar,8.1167,-63.55,Venezuela,VE,VEN,Bolívar
1356045686,Durgāpur,23.55,87.32,India,IN,IND,West Bengal
1643685056,Orenburg,51.7667,55.1,Russia,RU,RUS,Orenburgskaya Oblast’
1156921843,Shenzhou,38.0005,115.5541,China,CN,CHN,Hebei
1356093694,Āsansol,23.6833,86.9667,India,IN,IND,West Bengal
1608244137,Bacolod,10.6765,122.9509,Philippines,PH,PHL,Bacolod
1840000791,Akron,41.0798,-81.5219,United States,US,USA,Ohio
1840004850,New Haven,41.3112,-72.9246,United States,US,USA,Connecticut
1156634387,Zhenzhou,32.2739,119.1619,China,CN,CHN,Jiangsu
1360853933,Surakarta,-7.5667,110.8167,Indonesia,ID,IDN,Jawa Tengah
1484017493,Tlajomulco de Zúñiga,20.4736,-103.4431,Mexico,MX,MEX,Jalisco
1156304827,Jieshou,33.2605,115.3618,China,CN,CHN,Anhui
1156686465,Lanxi,29.2167,119.4722,China,CN,CHN,Zhejiang
1364072353,Zāhedān,29.4833,60.8667,Iran,IR,IRN,Sīstān va Balūchestān
1156585505,Dangyang,30.8258,111.791,China,CN,CHN,Hubei
1840014730,Columbia,34.0376,-80.9037,United States,US,USA,South Carolina
1643216311,Kemerovo,55.3333,86.0667,Russia,RU,RUS,Kemerovskaya Oblast’
1276561036,Dresden,51.0493,13.7384,Germany,DE,DEU,Saxony
1566061694,Uyo,5.008,7.85,Nigeria,NG,NGA,Akwa Ibom
1356982375,Bhāvnagar,21.765,72.1369,India,IN,IND,Gujarāt
1156092104,Luanzhou,39.7396,118.6978,China,CN,CHN,Hebei
1484992153,Veracruz,19.1903,-96.1533,Mexico,MX,MEX,Veracruz
1643628717,Novokuznetsk,53.75,87.1167,Russia,RU,RUS,Kemerovskaya Oblast’
1356280972,Nellore,14.4333,79.9667,India,IN,IND,Andhra Pradesh
1604799615,Chiclayo,-6.763,-79.8366,Peru,PE,PER,Lambayeque
1887984890,Al Ḩudaydah,14.8022,42.9511,Yemen,YE,YEM,Al Ḩudaydah
1364870126,Eslāmshahr,35.5333,51.2,Iran,IR,IRN,Tehrān
1024474012,Cabinda,-5.55,12.2,Angola,AO,AGO,Cabinda
1356462099,Amrāvati,20.9333,77.75,India,IN,IND,Mahārāshtra
1156965620,Korla,41.7646,86.1527,China,CN,CHN,Xinjiang
1156131099,Huanghua,38.371,117.3329,China,CN,CHN,Hebei
1156705922,Xingcheng,40.6189,120.7205,China,CN,CHN,Liaoning
1156017483,Wancheng,18.8,110.4,China,CN,CHN,Hainan
1156081841,Kaiyuan,42.538,124.0371,China,CN,CHN,Liaoning
1276563678,Leipzig,51.35,12.3833,Germany,DE,DEU,Saxony
1156519626,Fengcheng,40.4543,124.0646,China,CN,CHN,Liaoning
1356058258,Ajmer,26.468,74.639,India,IN,IND,Rājasthān
1156609451,Sihui,23.3448,112.6956,China,CN,CHN,Guangdong
1356037155,Tinnevelly,8.7289,77.7081,India,IN,IND,Tamil Nādu
1156530120,Fuding,27.2,120.2,China,CN,CHN,Fujian
1862546949,Maturín,9.7457,-63.1832,Venezuela,VE,VEN,Monagas
1368273311,An Nāşirīyah,31.0539,46.2503,Iraq,IQ,IRQ,Dhī Qār
1368916692,Al Ḩillah,32.4833,44.4333,Iraq,IQ,IRQ,Bābil
1170245063,Ibagué,4.4378,-75.2006,Colombia,CO,COL,Tolima
1276457707,Hannover,52.3744,9.7386,Germany,DE,DEU,Lower Saxony
1616725607,Poznań,52.4,16.9167,Poland,PL,POL,Wielkopolskie
1643205787,Ryazan,54.6167,39.7167,Russia,RU,RUS,Ryazanskaya Oblast’
1156659612,Panshi,42.9392,126.0561,China,CN,CHN,Jilin
1729157224,Kassala,15.45,36.4,Sudan,SD,SDN,Kassala
1156139784,Chang’an,29.4761,113.448,China,CN,CHN,Hunan
1156985313,Wencheng,19.6167,110.75,China,CN,CHN,Hainan
1156254380,Shashi,30.32,112.23,China,CN,CHN,Hubei
1156436913,Aksu,41.1664,80.25,China,CN,CHN,Xinjiang
1032926124,Salta,-24.7883,-65.4106,Argentina,AR,ARG,Salta
1410836094,Kimhae,35.2342,128.8811,"Korea, South",KR,KOR,Gyeongnam
1643407929,Astrakhan,46.3333,48.0167,Russia,RU,RUS,Astrakhanskaya Oblast’
1156864248,Mingguang,32.7816,117.9899,China,CN,CHN,Anhui
1643008493,Naberezhnyye Chelny,55.7,52.3333,Russia,RU,RUS,Tatarstan
1056168623,Antwerp,51.2211,4.3997,Belgium,BE,BEL,Flanders
1356026593,Bīkaner,28.0181,73.3169,India,IN,IND,Rājasthān
1356148992,Agartala,23.8333,91.2667,India,IN,IND,Tripura
1484334948,Xalapa,19.54,-96.9275,Mexico,MX,MEX,Veracruz
1894032745,Ndola,-12.9683,28.6337,Zambia,ZM,ZMB,Copperbelt
1364126377,Hamadān,34.8065,48.5162,Iran,IR,IRN,Hamadān
1170426927,Villavicencio,4.1425,-73.6294,Colombia,CO,COL,Meta
1156279608,Ailan Mubage,43.9167,81.3167,China,CN,CHN,Xinjiang
1484714297,Ensenada,31.8578,-116.6058,Mexico,MX,MEX,Baja California
1250196189,Lyon,45.76,4.84,France,FR,FRA,Auvergne-Rhône-Alpes
1704025181,Bắc Ninh,21.1861,106.0763,Vietnam,VN,VNM,Bắc Ninh
1484855080,Ciudad Apodaca,25.7833,-100.1833,Mexico,MX,MEX,Nuevo León
1862528581,Santa Teresa del Tuy,10.2333,-66.65,Venezuela,VE,VEN,Miranda
1076723241,Londrina,-23.3,-51.18,Brazil,BR,BRA,Paraná
1643492830,Penza,53.2,45,Russia,RU,RUS,Penzenskaya Oblast’
1484614906,Heroica Matamoros,25.8797,-97.5042,Mexico,MX,MEX,Tamaulipas
1818628574,Port Said,31.25,32.2833,Egypt,EG,EGY,Būr Sa‘īd
1586007078,New Mirpur,33.1333,73.75,Pakistan,PK,PAK,Azad Kashmir
1156530681,Yucheng,36.9329,116.6403,China,CN,CHN,Shandong
1170423489,Bello,6.33,-75.57,Colombia,CO,COL,Antioquia
1504333193,Meknès,33.8833,-5.55,Morocco,MA,MAR,Fès-Meknès
1276166609,Nuremberg,49.4528,11.0778,Germany,DE,DEU,Bavaria
1410983252,Pohang,36.0322,129.365,"Korea, South",KR,KOR,Gyeongbuk
1392506125,Utsunomiya,36.55,139.8833,Japan,JP,JPN,Tochigi
1156142150,Anda,46.4078,125.3252,China,CN,CHN,Heilongjiang
1156181533,Jinghong,22.0057,100.7948,China,CN,CHN,Yunnan
1156249772,Liaoyuan,42.8976,125.1381,China,CN,CHN,Jilin
1840020566,Mesa,33.4017,-111.718,United States,US,USA,Arizona
1124001454,Surrey,49.19,-122.8489,Canada,CA,CAN,British Columbia
1484282338,Cuautitlán Izcalli,19.65,-99.25,Mexico,MX,MEX,México
1356050735,Ujjain,23.1828,75.7772,India,IN,IND,Madhya Pradesh
1170715594,Santa Marta,11.2361,-74.2017,Colombia,CO,COL,Magdalena
1156424678,Beining,41.5933,121.7932,China,CN,CHN,Liaoning
1704909566,Hải Dương,20.9411,106.3331,Vietnam,VN,VNM,Hải Dương
1332000098,Carrefour,18.5333,-72.4,Haiti,HT,HTI,Ouest
1112580227,Homyel’,52.4417,30.9833,Belarus,BY,BLR,Homyel’skaya Voblasts’
1826431946,Leicester,52.6333,-1.1333,United Kingdom,GB,GBR,Leicester
1156405468,Yanji,42.9044,129.5067,China,CN,CHN,Jilin
1024141961,Benguela,-12.55,13.4167,Angola,AO,AGO,Benguela
1156742818,Yicheng,31.7117,112.2551,China,CN,CHN,Hubei
1682590992,Tabūk,28.3972,36.5789,Saudi Arabia,SA,SAU,Tabūk
1643772906,Lipetsk,52.6167,39.6,Russia,RU,RUS,Lipetskaya Oblast’
1356375341,Ulhāsnagar,19.2167,73.15,India,IN,IND,Mahārāshtra
1392220893,Matsuyama,33.8333,132.7667,Japan,JP,JPN,Ehime
1608473406,Muntinlupa City,14.3833,121.05,Philippines,PH,PHL,Muntinlupa
1156113193,Kashgar,39.45,75.9833,China,CN,CHN,Xinjiang
1156081300,Linghai,41.1676,121.3558,China,CN,CHN,Liaoning
1887867886,Aden,12.8,45.0333,Yemen,YE,YEM,‘Adan
1356712664,Jhānsi,25.4486,78.5696,India,IN,IND,Uttar Pradesh
1894321752,Kitwe,-12.8208,28.2119,Zambia,ZM,ZMB,Copperbelt
1566262000,Aba,5.1167,7.3667,Nigeria,NG,NGA,Abia
1840015094,Palm Bay,27.955,-80.6627,United States,US,USA,Florida
1158209038,Pingtung,22.6761,120.4942,Taiwan,TW,TWN,Pingtung
1860388706,Samarkand,39.6542,66.9597,Uzbekistan,UZ,UZB,Samarqand
1356445061,Davangere,14.4667,75.9167,India,IN,IND,Karnātaka
1392076347,Ichikawa,35.7219,139.9311,Japan,JP,JPN,Chiba
1356491738,Jammu,32.7333,74.85,India,IN,IND,Jammu and Kashmīr
1484841466,Mazatlán,23.22,-106.42,Mexico,MX,MEX,Sinaloa
1392117396,Higashi-ōsaka,34.6794,135.6008,Japan,JP,JPN,Ōsaka
1566756897,Ile-Ife,7.4667,4.5667,Nigeria,NG,NGA,Osun
1643106064,Kirov,58.6,49.65,Russia,RU,RUS,Kirovskaya Oblast’
1818735651,Madīnat as Sādis min Uktūbar,29.9361,30.9269,Egypt,EG,EGY,Al Jīzah
1398274508,Qaraghandy,49.8,73.1167,Kazakhstan,KZ,KAZ,Qaraghandy
1484350756,Mazatán,29.0167,-110.1333,Mexico,MX,MEX,Sonora
1276977172,Duisburg,51.4322,6.7611,Germany,DE,DEU,North Rhine-Westphalia
1804398395,Mykolaiv,46.9667,32,Ukraine,UA,UKR,Mykolayivs’ka Oblast’
1392642525,Matsudo,35.7878,139.9031,Japan,JP,JPN,Chiba
1840020174,Provo,40.2457,-111.6457,United States,US,USA,Utah
1156136207,Meicheng,30.6412,116.5689,China,CN,CHN,Anhui
1076501425,Niterói,-22.8833,-43.1036,Brazil,BR,BRA,Rio de Janeiro
1250372069,Rouen,49.4428,1.0886,France,FR,FRA,Normandie
1504891036,Oujda-Angad,34.6867,-1.9114,Morocco,MA,MAR,Oriental
1458747615,Johor Bahru,1.4556,103.7611,Malaysia,MY,MYS,Johor
1840000434,Worcester,42.2705,-71.8079,United States,US,USA,Massachusetts
1156039152,Hongjiang,27.1167,109.95,China,CN,CHN,Hunan
1604199858,Chimbote,-9.0745,-78.5936,Peru,PE,PER,Ancash
1156096868,Dengtacun,41.4237,123.3203,China,CN,CHN,Liaoning
1484452937,Ixtapaluca,19.3186,-98.8822,Mexico,MX,MEX,México
1156769646,Zhijiang,30.4271,111.7506,China,CN,CHN,Hubei
1156571332,Chengjiao,35.4043,114.0593,China,CN,CHN,Henan
1156378599,Beipiao,41.802,120.7621,China,CN,CHN,Liaoning
1840020553,Murrieta,33.572,-117.1909,United States,US,USA,California
1458150101,Kota Bharu,6.1333,102.25,Malaysia,MY,MYS,Kelantan
1156013872,Heshan,22.7697,112.9578,China,CN,CHN,Guangdong
1484363879,Ciudad López Mateos,19.55,-99.2833,Mexico,MX,MEX,México
1704960059,Vinh,18.6733,105.6922,Vietnam,VN,VNM,Nghệ An
1484562374,Tultitlán de Mariano Escobedo,19.645,-99.1694,Mexico,MX,MEX,México
1156084618,Duyun,26.2672,107.5143,China,CN,CHN,Guizhou
1156653230,Encheng,22.1879,112.3131,China,CN,CHN,Guangdong
1392114116,Nishinomiya-hama,34.7333,135.3333,Japan,JP,JPN,Hyōgo
1004003059,Kandahār,31.6078,65.7053,Afghanistan,AF,AFG,Kandahār
1643163382,Cheboksary,56.1333,47.25,Russia,RU,RUS,Chuvashiya
1156294277,Yuanping,38.7299,112.7134,China,CN,CHN,Shanxi
1729710259,Port Sudan,19.6158,37.2164,Sudan,SD,SDN,Red Sea
1170481949,Valledupar,10.4603,-73.2597,Colombia,CO,COL,Cesar
1826492520,Edinburgh,55.953,-3.189,United Kingdom,GB,GBR,"Edinburgh, City of"
1356390535,Belgaum,15.8667,74.5,India,IN,IND,Karnātaka
1643255206,Tula,54.2,37.6167,Russia,RU,RUS,Tul’skaya Oblast’
1156438524,Taozhou,30.8956,119.411,China,CN,CHN,Anhui
1818495972,Suez,29.9667,32.5333,Egypt,EG,EGY,As Suways
1156690538,Shahe,36.8622,114.502,China,CN,CHN,Hebei
1364429875,Yazd,31.8972,54.3678,Iran,IR,IRN,Yazd
1231826873,Nazrēt,8.55,39.27,Ethiopia,ET,ETH,Oromīya
1156238773,Gaoping,35.7911,112.9259,China,CN,CHN,Shanxi
1840057464,Brookhaven,40.8321,-72.9518,United States,US,USA,New York
1840013501,Greenville,34.8353,-82.3647,United States,US,USA,South Carolina
1364624691,Arāk,34.08,49.7,Iran,IR,IRN,Markazī
1484264138,San Nicolás de los Garza,25.75,-100.2833,Mexico,MX,MEX,Nuevo León
1356091187,Gulbarga,17.3333,76.8333,India,IN,IND,Karnātaka
1076006144,Juiz de Fora,-21.7642,-43.3503,Brazil,BR,BRA,Minas Gerais
1156058709,Dunhua,43.3667,128.2333,China,CN,CHN,Jilin
1076892244,Feira de Santana,-12.25,-38.97,Brazil,BR,BRA,Bahia
1156658217,Jiaji,19.2431,110.4642,China,CN,CHN,Hainan
1400161837,Az Zarqā’,32.0833,36.1,Jordan,JO,JOR,Az Zarqā’
1076922153,Americana,-22.7392,-47.3314,Brazil,BR,BRA,São Paulo
1364437616,Ardabīl,38.25,48.3,Iran,IR,IRN,Ardabīl
1050646703,Sylhet,24.9,91.8667,Bangladesh,BD,BGD,Sylhet
1840001686,Wichita,37.6896,-97.3442,United States,US,USA,Kansas
1840000572,Toledo,41.6639,-83.5822,United States,US,USA,Ohio
1156017759,Kaihua,23.3715,104.2437,China,CN,CHN,Yunnan
1826362422,Caerdydd,51.4833,-3.1833,United Kingdom,GB,GBR,Cardiff
1356104995,Jāmnagar,22.47,70.07,India,IN,IND,Gujarāt
1156196485,Fuyuan,48.3614,134.2875,China,CN,CHN,Heilongjiang
1356224695,Dhūlia,20.9,74.7833,India,IN,IND,Mahārāshtra
1508958445,Nampula,-15.1167,39.2667,Mozambique,MZ,MOZ,Nampula
1356045727,Gaya,24.75,85.0167,India,IN,IND,Bihār
1300458367,Piraeus,37.95,23.7,Greece,GR,GRC,Attikí
1392081193,Ōita,33.2333,131.6067,Japan,JP,JPN,Ōita
1076190259,Florianópolis,-27.5933,-48.553,Brazil,BR,BRA,Santa Catarina
1586413435,Chiniot,31.7167,72.9833,Pakistan,PK,PAK,Punjab
1156155414,Jiannan,31.3446,104.1994,China,CN,CHN,Sichuan
1156575615,Wuhai,39.6708,106.8114,China,CN,CHN,Inner Mongolia
1643178106,Kaliningrad,54.7167,20.5,Russia,RU,RUS,Kaliningradskaya Oblast’
1586383591,Sukkur,27.6995,68.8673,Pakistan,PK,PAK,Sindh
1156426803,Nangong,37.3606,115.3803,China,CN,CHN,Hebei
1840034032,Staten Island,40.5834,-74.1496,United States,US,USA,New York
1032869625,San Juan,-31.5375,-68.5364,Argentina,AR,ARG,San Juan
1076404077,Vila Velha,-20.3364,-40.2936,Brazil,BR,BRA,Espírito Santo
1076189884,Macapá,0.033,-51.0653,Brazil,BR,BRA,Amapá
1840007069,Des Moines,41.5725,-93.6105,United States,US,USA,Iowa
1604331641,Piura,-5.2008,-80.6253,Peru,PE,PER,Piura
1156812073,Jiaojiangcun,28.6804,121.45,China,CN,CHN,Zhejiang
1156791804,Laohekou,32.3849,111.6695,China,CN,CHN,Hubei
1156404715,Fujin,47.2489,132.0341,China,CN,CHN,Heilongjiang
1156084414,Beian,48.2395,126.5037,China,CN,CHN,Heilongjiang
1484979555,Celaya,20.5222,-100.8122,Mexico,MX,MEX,Guanajuato
1156910270,Xiaoyi,37.1449,111.7718,China,CN,CHN,Shanxi
1250789140,Strasbourg,48.5833,7.7458,France,FR,FRA,Grand Est
1032009573,Lanús,-34.7,-58.4,Argentina,AR,ARG,Buenos Aires
1156587033,Qingzhen,26.5555,106.4646,China,CN,CHN,Guizhou
1156346497,Jiangshan,28.7412,118.6225,China,CN,CHN,Zhejiang
1368444902,Ba‘qūbah,33.7447,44.6436,Iraq,IQ,IRQ,Diyālá
1288890688,Tamale,9.4075,-0.8533,Ghana,GH,GHA,Northern
1616406372,Gdańsk,54.3667,18.6333,Poland,PL,POL,Pomorskie
1392684679,Kanazawa,36.5667,136.65,Japan,JP,JPN,Ishikawa
1360771278,Manado,1.4931,124.8413,Indonesia,ID,IDN,Sulawesi Utara
1156184861,Jinchang,38.5168,102.1866,China,CN,CHN,Gansu
1566495489,Calabar,4.95,8.325,Nigeria,NG,NGA,Cross River
1392551602,Fukuyama,34.4858,133.3625,Japan,JP,JPN,Hiroshima
1840020490,Long Beach,33.7981,-118.1675,United States,US,USA,California
1792485155,Malatya,38.3554,38.3337,Turkey,TR,TUR,Malatya
1704016023,Huế,16.4667,107.5833,Vietnam,VN,VNM,Thừa Thiên-Huế
1356734842,Jalgaon,21.0167,75.5667,India,IN,IND,Mahārāshtra
1840015119,Port St. Lucie,27.2796,-80.3883,United States,US,USA,Florida
1076477498,Mauá,-23.6678,-46.4608,Brazil,BR,BRA,São Paulo
1170855299,Montería,8.76,-75.8856,Colombia,CO,COL,Córdoba
1376401542,Tel Aviv-Yafo,32.0833,34.8,Israel,IL,ISR,Tel Aviv
1156161838,Xicheng,23.3629,103.1545,China,CN,CHN,Yunnan
1608000077,Marikina City,14.65,121.1,Philippines,PH,PHL,Marikina
1410641095,Pyeongtaek,36.9947,127.0889,"Korea, South",KR,KOR,Gyeonggi
1356058372,Kurnool,15.8222,78.035,India,IN,IND,Andhra Pradesh
1788741658,Sfax,34.75,10.72,Tunisia,TN,TUN,Sfax
1608985581,City of Calamba,14.2167,121.1667,Philippines,PH,PHL,Laguna
1840019390,Denton,33.2176,-97.1419,United States,US,USA,Texas
1368838855,Ar Ramādī,33.4167,43.3,Iraq,IQ,IRQ,Al Anbār
1458467506,Melaka,2.1889,102.2511,Malaysia,MY,MYS,Melaka
1076343513,Volta Redonda,-22.5196,-44.095,Brazil,BR,BRA,Rio de Janeiro
1156278784,Jian’ou,27.0387,118.3215,China,CN,CHN,Fujian
1156106796,Shenmu,38.8389,110.4896,China,CN,CHN,Shaanxi
1156018839,Huadian,42.9688,126.7388,China,CN,CHN,Jilin
1158127875,Taoyuan District,24.9889,121.3111,Taiwan,TW,TWN,Taoyuan
1608875987,Iloilo,10.7167,122.5667,Philippines,PH,PHL,Iloilo
1458441859,Kota Kinabalu,5.975,116.0725,Malaysia,MY,MYS,Sabah
1156295044,Minzhu,43.7192,127.337,China,CN,CHN,Jilin
1050547831,Rājshāhi,24.3667,88.6,Bangladesh,BD,BGD,Rājshāhi
1818501770,Ţanţā,30.7833,31,Egypt,EG,EGY,Al Gharbīyah
1643989845,Balashikha,55.8,37.95,Russia,RU,RUS,Moskovskaya Oblast’
1356266094,Udaipur,24.5833,73.6833,India,IN,IND,Rājasthān
1643011077,Kursk,51.7372,36.1872,Russia,RU,RUS,Kurskaya Oblast’
1804630021,Mariupol,47.1306,37.5639,Ukraine,UA,UKR,Donets’ka Oblast’
1180475821,Bukavu,-2.5,28.8667,Congo (Kinshasa),CD,COD,Sud-Kivu
1158276420,Hsinchu,24.8047,120.9714,Taiwan,TW,TWN,Hsinchu
1862418619,Barcelona,10.1333,-64.6833,Venezuela,VE,VEN,Anzoátegui
1012275076,Constantine,36.365,6.6147,Algeria,DZ,DZA,Constantine
1156690688,Tanbei,35.0907,112.9317,China,CN,CHN,Henan
1566196391,Ado-Ekiti,7.6167,5.2167,Nigeria,NG,NGA,Ekiti
1792630786,Batman,37.8833,41.1333,Turkey,TR,TUR,Batman
1608448280,Pasay City,14.55,121,Philippines,PH,PHL,Pasay
1840002915,Madison,43.0826,-89.3931,United States,US,USA,Wisconsin
1156442510,Pingquan,41.0042,118.6848,China,CN,CHN,Hebei
1156988315,Baisha,29.4774,119.2853,China,CN,CHN,Zhejiang
1356209152,Bellary,15.15,76.915,India,IN,IND,Karnātaka
1192766111,Santiago de Cuba,20.0283,-75.8206,Cuba,CU,CUB,Santiago de Cuba
1156001205,Yongji,34.867,110.4417,China,CN,CHN,Shanxi
1840020121,Reno,39.5497,-119.8483,United States,US,USA,Nevada
1156347994,Danjiangkou,32.5408,111.5098,China,CN,CHN,Hubei
1792726797,Kahramanmaraş,37.5875,36.9453,Turkey,TR,TUR,Kahramanmaraş
1076760827,São José do Rio Prêto,-20.82,-49.3789,Brazil,BR,BRA,São Paulo
1860445095,Andijon,40.7,72.35,Uzbekistan,UZ,UZB,Andijon
1840001288,Harrisburg,40.2752,-76.8843,United States,US,USA,Pennsylvania
1250925250,Nancy,48.6936,6.1846,France,FR,FRA,Grand Est
1818255319,Al Manşūrah,31.05,31.3833,Egypt,EG,EGY,Ad Daqahlīyah
1392788615,Machida,35.5486,139.4467,Japan,JP,JPN,Tōkyō
1156629205,Ning’an,44.3429,129.4621,China,CN,CHN,Heilongjiang
1508407369,Beira,-19.8333,34.85,Mozambique,MZ,MOZ,Sofala
1840015509,Little Rock,34.7256,-92.3576,United States,US,USA,Arkansas
1756539143,Zürich,47.3786,8.54,Switzerland,CH,CHE,Zürich
1156240430,Zhangjiakou Shi Xuanhua Qu,40.5944,115.0243,China,CN,CHN,Hebei
1408510801,Sunch’ŏn,39.4167,125.9333,"Korea, North",KP,PRK,P’yŏngnam
1076867279,Diadema,-23.6858,-46.6228,Brazil,BR,BRA,São Paulo
1156955625,Guangming,45.3357,122.7765,China,CN,CHN,Jilin
1356921375,Sāngli,16.8667,74.5667,India,IN,IND,Mahārāshtra
1356751023,Tuticorin,8.7833,78.1333,India,IN,IND,Tamil Nādu
1004237782,Herāt,34.3738,62.1792,Afghanistan,AF,AFG,Herāt
1360696757,Kupang,-10.1633,123.5778,Indonesia,ID,IDN,Nusa Tenggara Timur
1586678302,Larkana,27.56,68.2264,Pakistan,PK,PAK,Sindh
1410364424,Jeju,33.5097,126.5219,"Korea, South",KR,KOR,Jeju
1364120623,Bandar ‘Abbās,27.2,56.25,Iran,IR,IRN,Hormozgān
1076033299,Santos,-23.9608,-46.3339,Brazil,BR,BRA,São Paulo
1643947228,Stavropol,45.05,41.9833,Russia,RU,RUS,Stavropol’skiy Kray
1566777297,Katsina,12.9908,7.6017,Nigeria,NG,NGA,Katsina
1360384833,Yogyakarta,-7.8014,110.3644,Indonesia,ID,IDN,Yogyakarta
1356010401,Calicut,11.25,75.7667,India,IN,IND,Kerala
1364312712,Zanjān,36.6667,48.4833,Iran,IR,IRN,Zanjān
1710480365,Welkom,-27.9831,26.7208,South Africa,ZA,ZAF,Free State
1643774900,Ulan-Ude,51.8272,107.6064,Russia,RU,RUS,Buryatiya
1840020296,Oakland,37.7903,-122.2165,United States,US,USA,California
1392133166,Kashiwa,35.8544,139.9689,Japan,JP,JPN,Chiba
1004436363,Mazār-e Sharīf,36.7,67.1167,Afghanistan,AF,AFG,Balkh
1364006067,Kāshān,33.9833,51.4333,Iran,IR,IRN,Eşfahān
1504534876,Kenitra,34.25,-6.5833,Morocco,MA,MAR,Rabat-Salé-Kénitra
1682497044,Khamīs Mushayţ,18.3,42.7333,Saudi Arabia,SA,SAU,‘Asīr
1410394650,Masan,35.1833,128.55,"Korea, South",KR,KOR,Gyeongnam
1604162901,Cusco,-13.5183,-71.9781,Peru,PE,PER,Cusco
1804806030,Sevastopol,44.6,33.5333,Ukraine,UA,UKR,"Sevastopol’, Misto"
1608166320,Mandaluyong City,14.5833,121.0333,Philippines,PH,PHL,Mandaluyong
1410396744,Kihŭng,37.4167,127.1167,"Korea, South",KR,KOR,Gyeonggi
1392498272,Toyota,35.0833,137.1567,Japan,JP,JPN,Aichi
1356089496,Akola,20.7333,77,India,IN,IND,Mahārāshtra
1156048097,Yan’an Beilu,44.0222,87.2961,China,CN,CHN,Xinjiang
1504116858,Agadir,30.4167,-9.5833,Morocco,MA,MAR,Souss-Massa
1076857883,Mogi das Cruzes,-23.5228,-46.1931,Brazil,BR,BRA,São Paulo
1840013364,Durham,35.9794,-78.9031,United States,US,USA,North Carolina
1180978192,Likasi,-10.9833,26.7333,Congo (Kinshasa),CD,COD,Haut-Katanga
1124922301,Laval,45.5833,-73.75,Canada,CA,CAN,Quebec
1840015324,Winston-Salem,36.1029,-80.2611,United States,US,USA,North Carolina
1410888678,Uijeongbu,37.7486,127.0389,"Korea, South",KR,KOR,Gyeonggi
1643456559,Tver,56.8578,35.9219,Russia,RU,RUS,Tverskaya Oblast’
1792156766,Elazığ,38.6667,39.2167,Turkey,TR,TUR,Elazığ
1566568277,Akure,7.25,5.195,Nigeria,NG,NGA,Ondo
1410638233,Kumi,36.21,128.3544,"Korea, South",KR,KOR,Gyeongbuk
1104494124,Hpa-An,16.8906,97.6333,Burma,MM,MMR,Kayin State
1840014227,Bonita Springs,26.3559,-81.7861,United States,US,USA,Florida
1156267191,Hailin,44.5735,129.3825,China,CN,CHN,Heilongjiang
1458051507,Seremban,2.7297,101.9381,Malaysia,MY,MYS,Negeri Sembilan
1392427161,Takamatsu,34.35,134.05,Japan,JP,JPN,Kagawa
1156612198,Lecheng,25.1307,113.3472,China,CN,CHN,Guangdong
1156759747,Zhengjiatun,43.513,123.5003,China,CN,CHN,Jilin
1804688214,Luhansk,48.5833,39.3333,Ukraine,UA,UKR,Luhans’ka Oblast’
1156147187,Pencheng,29.6792,115.6611,China,CN,CHN,Jiangxi
1643987830,Magnitogorsk,53.3833,59.0333,Russia,RU,RUS,Chelyabinskaya Oblast’
1608036027,Angeles City,15.1472,120.5847,Philippines,PH,PHL,Angeles
1729215531,El Obeid,13.1833,30.2167,Sudan,SD,SDN,North Kordofan
1156912899,Dalai,45.505,124.2863,China,CN,CHN,Jilin
1156533633,Xingren,25.4352,105.1907,China,CN,CHN,Guizhou
1724728111,Palma,39.5667,2.6497,Spain,ES,ESP,Balearic Islands
1180380965,Kolwezi,-10.7167,25.4667,Congo (Kinshasa),CD,COD,Lualaba
1156385754,Wenlan,23.3689,103.3881,China,CN,CHN,Yunnan
1840019304,Indio,33.7346,-116.2346,United States,US,USA,California
1840015064,Palm Coast,29.5392,-81.246,United States,US,USA,Florida
1834484937,Arusha,-3.3667,36.6833,Tanzania,TZ,TZA,Arusha
1156455704,Fenyang,37.2652,111.7793,China,CN,CHN,Shanxi
1392000560,Toyama,36.7,137.22,Japan,JP,JPN,Toyama
1410365324,Paju,37.8328,126.8169,"Korea, South",KR,KOR,Gyeonggi
1360021952,Mataram,-8.5833,116.1167,Indonesia,ID,IDN,Nusa Tenggara Barat
1840014569,Chattanooga,35.0657,-85.2488,United States,US,USA,Tennessee
1608430676,Lapu-Lapu City,10.315,123.9761,Philippines,PH,PHL,Lapu-Lapu
1156260844,Nagqu,31.4766,92.0569,China,CN,CHN,Tibet
1404511920,Kisumu,-0.1,34.75,Kenya,KE,KEN,Kisumu
1360517692,Jayapura,-2.5333,140.7167,Indonesia,ID,IDN,Papua
1156384608,Fangting,31.1282,104.1695,China,CN,CHN,Sichuan
1392162566,Nagasaki,32.7833,129.8667,Japan,JP,JPN,Nagasaki
1840021093,Spokane,47.6671,-117.433,United States,US,USA,Washington
1586291726,Shekhupura,31.7083,74,Pakistan,PK,PAK,Punjab
1643009782,Sochi,43.5853,39.7203,Russia,RU,RUS,Krasnodarskiy Kray
1356760990,Bhāgalpur,25.25,87.0167,India,IN,IND,Bihār
1076484921,Ipatinga,-19.4796,-42.52,Brazil,BR,BRA,Minas Gerais
1643297945,Ivanovo,57,41,Russia,RU,RUS,Ivanovskaya Oblast’
1566395088,Osogbo,7.7667,4.5667,Nigeria,NG,NGA,Osun
1608802508,Imus,14.4297,120.9367,Philippines,PH,PHL,Cavite
1484887986,Ciudad Obregón,27.4939,-109.9389,Mexico,MX,MEX,Sonora
1795079064,Türkmenabat,39.1,63.5667,Turkmenistan,TM,TKM,Lebap
1860894033,Namangan,40.9953,71.6725,Uzbekistan,UZ,UZB,Namangan
1643208827,Bryansk,53.25,34.3667,Russia,RU,RUS,Bryanskaya Oblast’
1156260069,Basuo,19.1,108.65,China,CN,CHN,Hainan
1156077074,Taiping,32.0691,108.0351,China,CN,CHN,Sichuan
1862284350,Maracay,10.2469,-67.5958,Venezuela,VE,VEN,Aragua
1724107739,Murcia,37.9866,-1.1415,Spain,ES,ESP,Murcia
1156275703,Jiexiu,37.0282,111.9103,China,CN,CHN,Shanxi
1800265900,Mbale,1.0806,34.175,Uganda,UG,UGA,Mbale
1398626276,Taraz,42.8833,71.3667,Kazakhstan,KZ,KAZ,Zhambyl
1818456592,Asyūţ,27.1869,31.1714,Egypt,EG,EGY,Asyūţ
1032817575,Santa Fe,-31.6333,-60.7,Argentina,AR,ARG,Santa Fe
1076218697,Campina Grande,-7.2306,-35.8811,Brazil,BR,BRA,Paraíba
1616256546,Szczecin,53.4247,14.5553,Poland,PL,POL,Zachodniopomorskie
1156064979,Ghulja,43.9,81.35,China,CN,CHN,Xinjiang
1840000378,Syracuse,43.0409,-76.1438,United States,US,USA,New York
1076874103,Carapicuíba,-23.5228,-46.8358,Brazil,BR,BRA,São Paulo
1392097787,Gifu,35.4167,136.7667,Japan,JP,JPN,Gifu
1356304110,Quilon,8.8853,76.5864,India,IN,IND,Kerala
1076998392,Jundiaí,-23.1864,-46.8842,Brazil,BR,BRA,São Paulo
1840003718,Lancaster,40.0421,-76.3012,United States,US,USA,Pennsylvania
1528636212,Eindhoven,51.43,5.5,Netherlands,NL,NLD,Noord-Brabant
1356163729,Sīkar,27.6119,75.1397,India,IN,IND,Rājasthān
1356033724,Tumkūr,13.33,77.1,India,IN,IND,Karnātaka
1156352568,Jiangjiafan,31.0304,112.1,China,CN,CHN,Hubei
1392216224,Miyazaki,31.9167,131.4167,Japan,JP,JPN,Miyazaki
1840019422,Arlington,32.6998,-97.125,United States,US,USA,Texas
1840021517,Stockton,37.9765,-121.3109,United States,US,USA,California
1356022456,Bhātpāra,22.8667,88.4167,India,IN,IND,West Bengal
1458405180,Sandakan,5.8388,118.1173,Malaysia,MY,MYS,Sabah
1156225234,Hejin,35.5914,110.706,China,CN,CHN,Shanxi
1704016079,Thanh Hóa,19.8075,105.7764,Vietnam,VN,VNM,Thanh Hóa
1356592356,Muzaffarnagar,29.4708,77.7033,India,IN,IND,Uttar Pradesh
1840000500,Poughkeepsie,41.6949,-73.921,United States,US,USA,New York
1050609330,Comilla,23.4704,91.17,Bangladesh,BD,BGD,Chittagong
1250778717,Metz,49.1203,6.1778,France,FR,FRA,Grand Est
1076606365,Campos,-21.7523,-41.3304,Brazil,BR,BRA,Rio de Janeiro
1704497901,Nha Trang,12.25,109.1833,Vietnam,VN,VNM,Khánh Hòa
1643407900,Belgorod,50.6,36.6,Russia,RU,RUS,Belgorodskaya Oblast’
1566782065,Yola,9.2,12.4833,Nigeria,NG,NGA,Adamawa
1392948850,Minamisuita,34.7667,135.5167,Japan,JP,JPN,Ōsaka
1600667303,San Lorenzo,-25.3431,-57.5094,Paraguay,PY,PRY,Central
1368864006,Ad Dīwānīyah,31.9892,44.9247,Iraq,IQ,IRQ,Al Qādisīyah
1156265838,Hancheng,35.4603,110.4292,China,CN,CHN,Shaanxi
1156595629,Fuyu,45.1804,124.82,China,CN,CHN,Jilin
1380202039,Bologna,44.4939,11.3428,Italy,IT,ITA,Emilia-Romagna
1156892128,Karamay,45.5928,84.8711,China,CN,CHN,Xinjiang
1356573609,Kākināda,16.9333,82.2167,India,IN,IND,Andhra Pradesh
1840029462,Augusta,33.3645,-82.0708,United States,US,USA,Georgia
1356077831,Bhīlwāra,25.35,74.6333,India,IN,IND,Rājasthān
1076809957,Caxias do Sul,-29.18,-51.17,Brazil,BR,BRA,Rio Grande do Sul
1156769379,Tieli,46.9804,128.045,China,CN,CHN,Heilongjiang
1360643410,Cilegon,-6.0027,106.0112,Indonesia,ID,IDN,Banten
1156435764,Baicheng,45.6148,122.832,China,CN,CHN,Jilin
1356242168,Nizāmābād,18.6704,78.1,India,IN,IND,Telangana
